[{"Adresse":"Avenue d'ouchy 14","Latitude":46.5135558,"Longitude":6.6304429775,"Proprietaire":"Clerc","Statut":"Marie ou Veuve","Prenom":"Femme de jean","Nom":"Morax","Date de naissance":1774,"Nom de jeune fille":"Pons","Enfants":null,"Date de naissance des enfants":null,"Origine":"Mex","Date d arriv\u00e9e":1774,"Vocation":"Tailleuse"},{"Adresse":"Avenue d'ouchy 18","Latitude":46.51314865,"Longitude":6.6301236143,"Proprietaire":"Corbaz","Statut":"Veuve","Prenom":"Non renseigne","Nom":"Corbaz","Date de naissance":1793,"Nom de jeune fille":"Uldry","Enfants":"Susanne, Augustine, Julie","Date de naissance des enfants":"1826, 1827, 1828","Origine":"Renens","Date d arriv\u00e9e":null,"Vocation":"Aubergiste"},{"Adresse":"Avenue d'ouchy 15","Latitude":46.5146506,"Longitude":6.6322353,"Proprietaire":"Mogeon","Statut":"Veuve","Prenom":"Non renseigne","Nom":"Verboux","Date de naissance":1777,"Nom de jeune fille":"Mogeon","Enfants":null,"Date de naissance des enfants":null,"Origine":"Paudex","Date d arriv\u00e9e":1777,"Vocation":"Journaliere"},{"Adresse":"Avenue d'ouchy 19","Latitude":46.5143775,"Longitude":6.6324158574,"Proprietaire":"Perrin","Statut":"Veuve","Prenom":"Non renseigne","Nom":"Mayor","Date de naissance":1765,"Nom de jeune fille":null,"Enfants":null,"Date de naissance des enfants":null,"Origine":"Grandcour","Date d arriv\u00e9e":null,"Vocation":"Rentiere"},{"Adresse":"Avenue d'ouchy 16","Latitude":46.51325665,"Longitude":6.6302822807,"Proprietaire":"Perrin","Statut":"Veuve","Prenom":"Non renseigne","Nom":"Perrin","Date de naissance":1785,"Nom de jeune fille":"Zimmerman","Enfants":null,"Date de naissance des enfants":null,"Origine":"Lausanne","Date d arriv\u00e9e":null,"Vocation":"Proprietaire"},{"Adresse":"Avenue d'ouchy 14","Latitude":46.5135558,"Longitude":6.6304429775,"Proprietaire":"Clerc","Statut":"Non renseigne","Prenom":"Jeanne Marie","Nom":"Pons","Date de naissance":1784,"Nom de jeune fille":null,"Enfants":null,"Date de naissance des enfants":null,"Origine":"Corp. Fran\u00e7aise","Date d arriv\u00e9e":1784,"Vocation":"Tailleuse"},{"Adresse":"Avenue d'ouchy 15","Latitude":46.5146506,"Longitude":6.6322353,"Proprietaire":"Mogeon","Statut":"Non renseigne","Prenom":"Marianne","Nom":"Mogeon","Date de naissance":1777,"Nom de jeune fille":null,"Enfants":null,"Date de naissance des enfants":null,"Origine":"Lausanne","Date d arriv\u00e9e":null,"Vocation":"Journaliere"},{"Adresse":"Avenue d'ouchy 24","Latitude":46.5069787,"Longitude":6.6263432,"Proprietaire":"Commune","Statut":"Veuve","Prenom":"Non renseigne","Nom":"Recordon","Date de naissance":1768,"Nom de jeune fille":"Vincent","Enfants":"Rosine","Date de naissance des enfants":1804,"Origine":"Rances","Date d arriv\u00e9e":null,"Vocation":"Rentiere"},{"Adresse":"Avenue d'ouchy 30 bis","Latitude":46.5069787,"Longitude":6.6263432,"Proprietaire":"Perrin","Statut":"Veuve","Prenom":"Non renseigne","Nom":"Fontannaz","Date de naissance":1782,"Nom de jeune fille":"Falconnier","Enfants":"Louis, Charles","Date de naissance des enfants":"1809, 1816","Origine":"Daillens","Date d arriv\u00e9e":1819,"Vocation":"Journaliere"},{"Adresse":"Avenue d'ouchy 30 bis","Latitude":46.5069787,"Longitude":6.6263432,"Proprietaire":"Perrin","Statut":"Veuve","Prenom":"Non renseigne","Nom":"Perrin","Date de naissance":1791,"Nom de jeune fille":"Dizerens","Enfants":"Jule, Jean Rodolphe, Henri, Henriette Mary","Date de naissance des enfants":"1817, 1821, 1826, 1828","Origine":"Lausanne","Date d arriv\u00e9e":null,"Vocation":"Charcutiere"},{"Adresse":"Avenue d'ouchy 34","Latitude":46.51209335,"Longitude":6.6293581,"Proprietaire":"Appotheloz","Statut":"Veuve","Prenom":"Non renseigne","Nom":"Appotheloz","Date de naissance":1764,"Nom de jeune fille":"Gex","Enfants":"Susette","Date de naissance des enfants":1794,"Origine":"Corcelles","Date d arriv\u00e9e":null,"Vocation":"Blanchisseuse"},{"Adresse":"Avenue d'ouchy 30","Latitude":46.51221695,"Longitude":6.6294818533,"Proprietaire":"Clerc","Statut":"Veuve","Prenom":"Non renseigne","Nom":"Perey","Date de naissance":1770,"Nom de jeune fille":"Fontaine","Enfants":"Jacques, Frederic, Marc","Date de naissance des enfants":"1800, 1810, 1817","Origine":"Orsens","Date d arriv\u00e9e":null,"Vocation":"Journaliere"},{"Adresse":"Avenue d'ouchy 39","Latitude":46.51202145,"Longitude":6.6299632679,"Proprietaire":"Perrin","Statut":"Veuve","Prenom":"Non renseigne","Nom":"Neuschwander","Date de naissance":1788,"Nom de jeune fille":null,"Enfants":"Paul, Virginie, Louise","Date de naissance des enfants":"1808, 1809, 1813","Origine":"Langnau","Date d arriv\u00e9e":null,"Vocation":"Patissiere"},{"Adresse":"Avenue d'ouchy 42","Latitude":46.5069787,"Longitude":6.6263432,"Proprietaire":"Dupont","Statut":"Veuve","Prenom":"Non renseigne","Nom":"Dupont","Date de naissance":1776,"Nom de jeune fille":null,"Enfants":"Louis","Date de naissance des enfants":1799,"Origine":"Lausanne","Date d arriv\u00e9e":null,"Vocation":"Proprietaire"},{"Adresse":"Avenue d'ouchy 40","Latitude":46.5113019,"Longitude":6.6284223975,"Proprietaire":"Dacord","Statut":"Veuve","Prenom":"Non renseigne","Nom":"Dacord","Date de naissance":1759,"Nom de jeune fille":null,"Enfants":"Olimpe, Samuel","Date de naissance des enfants":"1785, 1799","Origine":"Lausanne","Date d arriv\u00e9e":null,"Vocation":"Journaliere"},{"Adresse":"Avenue d'ouchy 39","Latitude":46.51202145,"Longitude":6.6299632679,"Proprietaire":"Perrin","Statut":"Non renseigne","Prenom":"Catherine","Nom":"Bayeler","Date de naissance":1800,"Nom de jeune fille":null,"Enfants":null,"Date de naissance des enfants":null,"Origine":"Corp. Fran\u00e7aise","Date d arriv\u00e9e":1831,"Vocation":"Sage Femme"},{"Adresse":"Avenue d'ouchy 39","Latitude":46.51202145,"Longitude":6.6299632679,"Proprietaire":"Perrin","Statut":"Non renseigne","Prenom":"Louise","Nom":"Perrin","Date de naissance":1800,"Nom de jeune fille":null,"Enfants":null,"Date de naissance des enfants":null,"Origine":"Lausanne","Date d arriv\u00e9e":null,"Vocation":"Journaliere"},{"Adresse":"Avenue d'ouchy 36","Latitude":46.5069787,"Longitude":6.6263432,"Proprietaire":"Perrin","Statut":"Non renseigne","Prenom":"Marianne","Nom":"Perrin","Date de naissance":1805,"Nom de jeune fille":null,"Enfants":null,"Date de naissance des enfants":null,"Origine":"Lausanne","Date d arriv\u00e9e":null,"Vocation":"Blanchisseuse"},{"Adresse":"Avenue d'ouchy 38","Latitude":46.5118486,"Longitude":6.6291918634,"Proprietaire":"Clerc","Statut":"Non renseigne","Prenom":"Marianne","Nom":"Devenoge","Date de naissance":1785,"Nom de jeune fille":null,"Enfants":"Leon","Date de naissance des enfants":1823,"Origine":"Morges","Date d arriv\u00e9e":1831,"Vocation":"Rentiere"},{"Adresse":"Avenue d'ouchy 39","Latitude":46.51202145,"Longitude":6.6299632679,"Proprietaire":"Perrin","Statut":"Non renseigne","Prenom":"Marianne","Nom":"Perrin","Date de naissance":1806,"Nom de jeune fille":null,"Enfants":null,"Date de naissance des enfants":null,"Origine":"Lausanne","Date d arriv\u00e9e":null,"Vocation":"Journaliere"},{"Adresse":"Avenue d'ouchy","Latitude":46.5069259,"Longitude":6.6269128,"Proprietaire":"Demollin","Statut":"Veuve","Prenom":"Non renseigne","Nom":"Visinand","Date de naissance":1771,"Nom de jeune fille":"Holzer","Enfants":"Fran\u00e7ois, Susette, Fanny, Samuel","Date de naissance des enfants":"1792, 1795, 1806, 1812","Origine":"Corsier","Date d arriv\u00e9e":1830,"Vocation":"Vigneronne"},{"Adresse":"Avenue de Chailly","Latitude":46.526583,"Longitude":6.6516794,"Proprietaire":"Blanc","Statut":"Veuve","Prenom":"Non renseigne","Nom":"Blanc","Date de naissance":1765,"Nom de jeune fille":null,"Enfants":"Abram,Louise","Date de naissance des enfants":1789.1787,"Origine":"Lausanne","Date d arriv\u00e9e":"nee","Vocation":"Cultive les terres"},{"Adresse":"Avenue de Chailly","Latitude":46.526583,"Longitude":6.6516794,"Proprietaire":"Emery","Statut":"Non renseigne","Prenom":"Fauchette","Nom":"Blanc","Date de naissance":1780,"Nom de jeune fille":null,"Enfants":null,"Date de naissance des enfants":null,"Origine":"Lausanne","Date d arriv\u00e9e":null,"Vocation":"Journaliere"},{"Adresse":"Avenue de Chailly","Latitude":46.526583,"Longitude":6.6516794,"Proprietaire":"Chare","Statut":"Non renseigne","Prenom":"Fauchette","Nom":"Collin","Date de naissance":1773,"Nom de jeune fille":null,"Enfants":null,"Date de naissance des enfants":null,"Origine":"Lausanne","Date d arriv\u00e9e":"nee","Vocation":"Rentiere"},{"Adresse":"Avenue de Cour","Latitude":46.5168771,"Longitude":6.6108538,"Proprietaire":"Combernous","Statut":"Non renseigne","Prenom":"Jeanne","Nom":"Mermillod","Date de naissance":1770,"Nom de jeune fille":null,"Enfants":null,"Date de naissance des enfants":null,"Origine":"Oron la ville","Date d arriv\u00e9e":1813,"Vocation":"Rentiere"},{"Adresse":"Avenue de Cour","Latitude":46.5168771,"Longitude":6.6108538,"Proprietaire":"Tavernay","Statut":"Non renseigne","Prenom":"Marie","Nom":"Dumaine","Date de naissance":1770,"Nom de jeune fille":null,"Enfants":null,"Date de naissance des enfants":null,"Origine":"Lausanne","Date d arriv\u00e9e":null,"Vocation":"Rentiere"},{"Adresse":"Avenue de Cour","Latitude":46.5168771,"Longitude":6.6108538,"Proprietaire":"Regamey","Statut":"Veuve","Prenom":"Non renseigne","Nom":"Regamey","Date de naissance":1775,"Nom de jeune fille":null,"Enfants":"Charles, Jean","Date de naissance des enfants":"1800, 1811","Origine":"Non renseigne","Date d arriv\u00e9e":null,"Vocation":"Proprietaire"},{"Adresse":"Avenue de Cour","Latitude":46.5168771,"Longitude":6.6108538,"Proprietaire":"Meylan","Statut":"Veuve","Prenom":"Non renseigne","Nom":"Perisot","Date de naissance":1762,"Nom de jeune fille":null,"Enfants":null,"Date de naissance des enfants":null,"Origine":"Villette","Date d arriv\u00e9e":1788,"Vocation":"Rentiere"},{"Adresse":"Avenue de Cour","Latitude":46.5168771,"Longitude":6.6108538,"Proprietaire":"Perret","Statut":"Veuve","Prenom":"Non renseigne","Nom":"Perret","Date de naissance":1770,"Nom de jeune fille":null,"Enfants":"Anne-Louise, Jenny, David, Isaac-Benjamin","Date de naissance des enfants":"1805, 1812, 1809, 1808","Origine":"Villars-Tiercelin","Date d arriv\u00e9e":null,"Vocation":"Proprietaire"},{"Adresse":"Avenue de Cour","Latitude":46.5168771,"Longitude":6.6108538,"Proprietaire":"Leresche","Statut":"Non renseigne","Prenom":"Jeanne","Nom":"Camel","Date de naissance":1800,"Nom de jeune fille":null,"Enfants":"Jeanne-Louise","Date de naissance des enfants":null,"Origine":"Villars Ste Croix","Date d arriv\u00e9e":1800,"Vocation":"Journaliere"},{"Adresse":"Avenue de la Chabliere","Latitude":46.5317745,"Longitude":6.6142776,"Proprietaire":"Guiguer","Statut":"Veuve","Prenom":"Non renseigne","Nom":"Rouff","Date de naissance":1772,"Nom de jeune fille":null,"Enfants":"Jean, Emmanuel, Marc","Date de naissance des enfants":"1791, 1804, 1809","Origine":"Prilly","Date d arriv\u00e9e":null,"Vocation":"Fermiere"},{"Adresse":"Avenue de Montbenon 11","Latitude":46.5198315,"Longitude":6.6283806,"Proprietaire":"Viollet","Statut":"Non renseigne","Prenom":"Madame","Nom":"Chaw","Date de naissance":"Non renseigne","Nom de jeune fille":null,"Enfants":null,"Date de naissance des enfants":null,"Origine":"Anglaise","Date d arriv\u00e9e":null,"Vocation":null},{"Adresse":"Avenue de Montchoisi","Latitude":46.5109829,"Longitude":6.6369155,"Proprietaire":"Corjeat","Statut":"Non renseigne","Prenom":"Elisabeth","Nom":"Corjeat","Date de naissance":1765,"Nom de jeune fille":null,"Enfants":null,"Date de naissance des enfants":null,"Origine":"Lausanne","Date d arriv\u00e9e":null,"Vocation":"Proprietaire"},{"Adresse":"Avenue du Servan","Latitude":46.51162,"Longitude":6.6332837,"Proprietaire":"Constant","Statut":"Non renseigne","Prenom":"Caroline","Nom":"Forbes","Date de naissance":"Non renseigne","Nom de jeune fille":null,"Enfants":null,"Date de naissance des enfants":null,"Origine":"Angleterre","Date d arriv\u00e9e":null,"Vocation":"Rentiere"},{"Adresse":"Avenue du Servan","Latitude":46.51162,"Longitude":6.6332837,"Proprietaire":"Constant","Statut":"Non renseigne","Prenom":"Charlotte","Nom":"Forbes","Date de naissance":"Non renseigne","Nom de jeune fille":null,"Enfants":null,"Date de naissance des enfants":null,"Origine":"Angleterre","Date d arriv\u00e9e":null,"Vocation":"Rentiere"},{"Adresse":"Avenue du Servan","Latitude":46.51162,"Longitude":6.6332837,"Proprietaire":"Constant","Statut":"Non renseigne","Prenom":"Johanna","Nom":"Forbes","Date de naissance":"Non renseigne","Nom de jeune fille":null,"Enfants":null,"Date de naissance des enfants":null,"Origine":"Angleterre","Date d arriv\u00e9e":null,"Vocation":"Rentiere"},{"Adresse":"Avenue du Servan","Latitude":46.51162,"Longitude":6.6332837,"Proprietaire":"Constant","Statut":"Non renseigne","Prenom":"Marguerite","Nom":"Forbes","Date de naissance":"Non renseigne","Nom de jeune fille":null,"Enfants":null,"Date de naissance des enfants":null,"Origine":"Angleterre","Date d arriv\u00e9e":null,"Vocation":"Rentiere"},{"Adresse":"Chemin du Bois gentil","Latitude":46.5376799,"Longitude":6.6248639,"Proprietaire":"Regamey","Statut":"Veuve","Prenom":"Non renseigne","Nom":"Regamey","Date de naissance":"Non renseigne","Nom de jeune fille":null,"Enfants":"Fran\u00e7ois Louis, Jeanne Louise","Date de naissance des enfants":"1790, 1797","Origine":"Lausanne","Date d arriv\u00e9e":null,"Vocation":"Proprietaire"},{"Adresse":"Chemin du Bois gentil","Latitude":46.5376799,"Longitude":6.6248639,"Proprietaire":"Chevalley","Statut":"Non renseigne","Prenom":"Susanne Marguerite","Nom":"Grenier","Date de naissance":1752,"Nom de jeune fille":null,"Enfants":"Augustin","Date de naissance des enfants":1800,"Origine":"Abbaye","Date d arriv\u00e9e":null,"Vocation":"Faiseuse de dentelle"},{"Adresse":"Chemin du Calvaire","Latitude":46.52555,"Longitude":6.638675,"Proprietaire":"Ruchonnet","Statut":"Non renseigne","Prenom":"Jeanne","Nom":"Ruchonnet","Date de naissance":1760,"Nom de jeune fille":null,"Enfants":null,"Date de naissance des enfants":null,"Origine":"St. Saphorin","Date d arriv\u00e9e":"nee","Vocation":"Rentiere"},{"Adresse":"Chemin du Calvaire","Latitude":46.52555,"Longitude":6.638675,"Proprietaire":"Ceres","Statut":"Non renseigne","Prenom":"Julie","Nom":"Regamay","Date de naissance":1786,"Nom de jeune fille":null,"Enfants":null,"Date de naissance des enfants":null,"Origine":"Lausanne","Date d arriv\u00e9e":"nee","Vocation":"Locataire"},{"Adresse":"Passage des Saugettes","Latitude":46.515894,"Longitude":6.6313857,"Proprietaire":"Devant","Statut":"Veuve","Prenom":"Non renseigne","Nom":"Devant","Date de naissance":1768,"Nom de jeune fille":"Guex","Enfants":"Louise, Louis, Adrianne","Date de naissance des enfants":"1800, 1802, 1809","Origine":"Lausanne","Date d arriv\u00e9e":null,"Vocation":"Proprietaire"},{"Adresse":"Place Chauderon 6","Latitude":46.5233851,"Longitude":6.6262489,"Proprietaire":"Rivier","Statut":"Veuve","Prenom":"Non renseigne","Nom":"Rost","Date de naissance":1778,"Nom de jeune fille":null,"Enfants":"Henri","Date de naissance des enfants":1808,"Origine":"Echichens","Date d arriv\u00e9e":null,"Vocation":"Confiseuse"},{"Adresse":"Place Chauderon 32","Latitude":46.52390405,"Longitude":6.6237566311,"Proprietaire":"Pache","Statut":"Celibataire","Prenom":"Charlotte","Nom":"Pache","Date de naissance":1783,"Nom de jeune fille":null,"Enfants":null,"Date de naissance des enfants":null,"Origine":"Epalinges","Date d arriv\u00e9e":"nee","Vocation":"Journaliere"},{"Adresse":"Place Chauderon 33","Latitude":46.5233851,"Longitude":6.6262489,"Proprietaire":"Roy","Statut":"Marie ou Veuve","Prenom":"Louise","Nom":"Hoffman","Date de naissance":1764,"Nom de jeune fille":null,"Enfants":null,"Date de naissance des enfants":null,"Origine":"Chavannes","Date d arriv\u00e9e":null,"Vocation":null},{"Adresse":"Place de la Palud 8","Latitude":46.5220467,"Longitude":6.632298149,"Proprietaire":"Coeytaux","Statut":"Celibataire","Prenom":"Angelique","Nom":"Reyment","Date de naissance":1793,"Nom de jeune fille":null,"Enfants":null,"Date de naissance des enfants":null,"Origine":"Vallee","Date d arriv\u00e9e":null,"Vocation":null},{"Adresse":"Place de la Palud 8","Latitude":46.5220467,"Longitude":6.632298149,"Proprietaire":"Coeytaux","Statut":"Celibataire","Prenom":"Jenny","Nom":"Guignard","Date de naissance":1809,"Nom de jeune fille":null,"Enfants":null,"Date de naissance des enfants":null,"Origine":"Vallee","Date d arriv\u00e9e":null,"Vocation":null},{"Adresse":"Place de la Palud 7","Latitude":46.5219966,"Longitude":6.6324037,"Proprietaire":"Lecomte","Statut":"Veuve","Prenom":"Non renseigne","Nom":"Mayor","Date de naissance":1772,"Nom de jeune fille":"Taillent","Enfants":null,"Date de naissance des enfants":null,"Origine":"Ballens","Date d arriv\u00e9e":null,"Vocation":"Rentiere"},{"Adresse":"Place de la Palud 10","Latitude":46.5220835,"Longitude":6.6322326,"Proprietaire":"Pidou","Statut":"Veuve","Prenom":"Non renseigne","Nom":"Pidou","Date de naissance":1775,"Nom de jeune fille":"Aubert","Enfants":null,"Date de naissance des enfants":null,"Origine":"Lausanne","Date d arriv\u00e9e":null,"Vocation":"Rentiere"},{"Adresse":"Place de la Palud 12","Latitude":46.5218392,"Longitude":6.6329479,"Proprietaire":"Vulliemoz","Statut":"Veuve","Prenom":"Non renseigne","Nom":"Barbez","Date de naissance":1773,"Nom de jeune fille":"Crud","Enfants":null,"Date de naissance des enfants":null,"Origine":"Cherbu","Date d arriv\u00e9e":null,"Vocation":"Rentiere"},{"Adresse":"Place de la Palud 8","Latitude":46.5220467,"Longitude":6.632298149,"Proprietaire":"Coeytaux","Statut":"Veuve","Prenom":"Non renseigne","Nom":"Decurner","Date de naissance":1762,"Nom de jeune fille":"Bron","Enfants":null,"Date de naissance des enfants":null,"Origine":"Vulliens","Date d arriv\u00e9e":null,"Vocation":"Rentiere"},{"Adresse":"Place de la Palud 11","Latitude":46.52223035,"Longitude":6.6322092771,"Proprietaire":"Mieville","Statut":"Non renseigne","Prenom":"Alexandrine","Nom":"Bornerod","Date de naissance":1800,"Nom de jeune fille":null,"Enfants":null,"Date de naissance des enfants":null,"Origine":"Avenohz","Date d arriv\u00e9e":null,"Vocation":"Institutrice"},{"Adresse":"Place de la Palud 13","Latitude":46.5224666,"Longitude":6.632297242,"Proprietaire":"LeBlanc","Statut":"Non renseigne","Prenom":"Armande","Nom":"Morin","Date de naissance":1787,"Nom de jeune fille":null,"Enfants":null,"Date de naissance des enfants":null,"Origine":"Vich","Date d arriv\u00e9e":null,"Vocation":"Rentiere"},{"Adresse":"Place de la Palud 12","Latitude":46.5218392,"Longitude":6.6329479,"Proprietaire":"Vulliemoz","Statut":"Non renseigne","Prenom":"Catherine","Nom":"Faifs","Date de naissance":1779,"Nom de jeune fille":null,"Enfants":null,"Date de naissance des enfants":null,"Origine":"Nyon","Date d arriv\u00e9e":null,"Vocation":"Rentiere"},{"Adresse":"Place de la Palud 12","Latitude":46.5218392,"Longitude":6.6329479,"Proprietaire":"Vulliemoz","Statut":"Non renseigne","Prenom":"Demoiselle","Nom":"Crud","Date de naissance":1780,"Nom de jeune fille":null,"Enfants":null,"Date de naissance des enfants":null,"Origine":"Lausanne","Date d arriv\u00e9e":null,"Vocation":"Rentiere"},{"Adresse":"Place de la Palud 13","Latitude":46.5224666,"Longitude":6.632297242,"Proprietaire":"LeBlanc","Statut":"Non renseigne","Prenom":"Elize","Nom":"Bourillon","Date de naissance":1792,"Nom de jeune fille":null,"Enfants":null,"Date de naissance des enfants":null,"Origine":"Lausanne","Date d arriv\u00e9e":null,"Vocation":"Rentiere"},{"Adresse":"Place de la Palud 13","Latitude":46.5224666,"Longitude":6.632297242,"Proprietaire":"LeBlanc","Statut":"Non renseigne","Prenom":"Henriette","Nom":"Chapuis","Date de naissance":1792,"Nom de jeune fille":null,"Enfants":null,"Date de naissance des enfants":null,"Origine":"Chexbre","Date d arriv\u00e9e":null,"Vocation":"Rentiere"},{"Adresse":"Place de la Palud 11","Latitude":46.52223035,"Longitude":6.6322092771,"Proprietaire":"Mieville","Statut":"Non renseigne","Prenom":"Jeannette","Nom":"Blondel","Date de naissance":1794,"Nom de jeune fille":null,"Enfants":null,"Date de naissance des enfants":null,"Origine":"Mont le Grand","Date d arriv\u00e9e":null,"Vocation":"Marchande"},{"Adresse":"Place de la Palud 12","Latitude":46.5218392,"Longitude":6.6329479,"Proprietaire":"Vulliemoz","Statut":"Non renseigne","Prenom":"Jeannette","Nom":"Chapuis","Date de naissance":1796,"Nom de jeune fille":null,"Enfants":null,"Date de naissance des enfants":null,"Origine":"Lausanne","Date d arriv\u00e9e":null,"Vocation":"Marchande"},{"Adresse":"Place de la Palud 11","Latitude":46.52223035,"Longitude":6.6322092771,"Proprietaire":"Mieville","Statut":"Non renseigne","Prenom":"Jenny","Nom":"Schwartz","Date de naissance":1789,"Nom de jeune fille":null,"Enfants":null,"Date de naissance des enfants":null,"Origine":"Rolle","Date d arriv\u00e9e":null,"Vocation":"Lingere"},{"Adresse":"Place de la Palud 13","Latitude":46.5224666,"Longitude":6.632297242,"Proprietaire":"LeBlanc","Statut":"Non renseigne","Prenom":"Jenny","Nom":"Morin","Date de naissance":1788,"Nom de jeune fille":null,"Enfants":null,"Date de naissance des enfants":null,"Origine":"Vich","Date d arriv\u00e9e":null,"Vocation":"Rentiere"},{"Adresse":"Place de la Palud 13","Latitude":46.5224666,"Longitude":6.632297242,"Proprietaire":"LeBlanc","Statut":"Non renseigne","Prenom":"Marie","Nom":"Delefsert","Date de naissance":1762,"Nom de jeune fille":null,"Enfants":null,"Date de naissance des enfants":null,"Origine":"Lutry","Date d arriv\u00e9e":null,"Vocation":"Marchande"},{"Adresse":"Place de la Palud 7","Latitude":46.5219966,"Longitude":6.6324037,"Proprietaire":"Lecomte","Statut":"Non renseigne","Prenom":"Rosine","Nom":"Heffti","Date de naissance":1813,"Nom de jeune fille":null,"Enfants":null,"Date de naissance des enfants":null,"Origine":"Luchsingen","Date d arriv\u00e9e":null,"Vocation":"Negot"},{"Adresse":"Place de la Palud 18","Latitude":46.52222375,"Longitude":6.6326813489,"Proprietaire":"Porchat","Statut":"Veuve","Prenom":"Non renseigne","Nom":"Josef","Date de naissance":1784,"Nom de jeune fille":"Bocion","Enfants":"Rosine, Paul Emile","Date de naissance des enfants":"1816, 1820","Origine":"Lausanne","Date d arriv\u00e9e":null,"Vocation":"Rentiere"},{"Adresse":"Place de la Palud 14","Latitude":46.522284,"Longitude":6.6324134,"Proprietaire":"Demollins","Statut":"Veuve","Prenom":"Non renseigne","Nom":"Chapuisat","Date de naissance":1755,"Nom de jeune fille":"Cheriz","Enfants":null,"Date de naissance des enfants":null,"Origine":"Aclens","Date d arriv\u00e9e":null,"Vocation":"Marchande"},{"Adresse":"Place de la Palud 15","Latitude":46.5218392,"Longitude":6.6329479,"Proprietaire":"Schell","Statut":"Veuve","Prenom":"Non renseigne","Nom":"Schell","Date de naissance":1766,"Nom de jeune fille":"Saucon","Enfants":null,"Date de naissance des enfants":null,"Origine":"Prilly","Date d arriv\u00e9e":null,"Vocation":null},{"Adresse":"Place de la Palud 17","Latitude":46.52222375,"Longitude":6.6326813489,"Proprietaire":"LeBlanc","Statut":"Non renseigne","Prenom":"Benjamine","Nom":"Schmidt","Date de naissance":1778,"Nom de jeune fille":null,"Enfants":null,"Date de naissance des enfants":null,"Origine":"Jonxtens","Date d arriv\u00e9e":null,"Vocation":"Rentiere"},{"Adresse":"Place de la Palud 16","Latitude":46.5222698,"Longitude":6.6325655878,"Proprietaire":"Pascal","Statut":"Non renseigne","Prenom":"Isabelle","Nom":"Gouillot","Date de naissance":1808,"Nom de jeune fille":null,"Enfants":null,"Date de naissance des enfants":null,"Origine":"Ormond","Date d arriv\u00e9e":null,"Vocation":"Couturiere"},{"Adresse":"Place de la Palud 21","Latitude":46.522039,"Longitude":6.6333394742,"Proprietaire":"Boulan","Statut":"Non renseigne","Prenom":"Jeanne Elize","Nom":"Mouty","Date de naissance":1802,"Nom de jeune fille":null,"Enfants":null,"Date de naissance des enfants":null,"Origine":"Aubonne","Date d arriv\u00e9e":null,"Vocation":"Marchande"},{"Adresse":"Place de la Palud 16","Latitude":46.5222698,"Longitude":6.6325655878,"Proprietaire":"Pascal","Statut":"Non renseigne","Prenom":"Louise","Nom":"Gouillot","Date de naissance":1813,"Nom de jeune fille":null,"Enfants":null,"Date de naissance des enfants":null,"Origine":"Ormond","Date d arriv\u00e9e":null,"Vocation":"Couturiere"},{"Adresse":"Place de la Palud 16","Latitude":46.5222698,"Longitude":6.6325655878,"Proprietaire":"Pascal","Statut":"Non renseigne","Prenom":"Margueritte","Nom":"Ecoffey","Date de naissance":1741,"Nom de jeune fille":null,"Enfants":null,"Date de naissance des enfants":null,"Origine":"Vuilliens","Date d arriv\u00e9e":null,"Vocation":"Institutrice"},{"Adresse":"Place de la Palud 21","Latitude":46.522039,"Longitude":6.6333394742,"Proprietaire":"Doulan","Statut":"Non renseigne","Prenom":"Susanne","Nom":"Delessert","Date de naissance":"Non renseigne","Nom de jeune fille":null,"Enfants":null,"Date de naissance des enfants":null,"Origine":"Lutry","Date d arriv\u00e9e":null,"Vocation":null},{"Adresse":"Place de la Palud 24","Latitude":46.5218392,"Longitude":6.6329479,"Proprietaire":"Hollard","Statut":"Non renseigne","Prenom":"jeanne femme","Nom":"Ogiz","Date de naissance":"Non renseigne","Nom de jeune fille":null,"Enfants":null,"Date de naissance des enfants":null,"Origine":"Non renseigne","Date d arriv\u00e9e":null,"Vocation":null},{"Adresse":"Place de la Palud 24","Latitude":46.5218392,"Longitude":6.6329479,"Proprietaire":"Hollard","Statut":"Non renseigne","Prenom":"Louise","Nom":"Haldy","Date de naissance":1808,"Nom de jeune fille":null,"Enfants":null,"Date de naissance des enfants":null,"Origine":"Gefsenay","Date d arriv\u00e9e":null,"Vocation":null},{"Adresse":"Place Saint-Fran\u00e7ois 18","Latitude":46.519677,"Longitude":6.6330201,"Proprietaire":"Lugeon","Statut":"Non renseigne","Prenom":"Jeanne","Nom":"Oboussier","Date de naissance":1758,"Nom de jeune fille":null,"Enfants":null,"Date de naissance des enfants":null,"Origine":"Lausanne","Date d arriv\u00e9e":"nee","Vocation":"Rentiere"},{"Adresse":"Place Saint-Fran\u00e7ois 18","Latitude":46.519677,"Longitude":6.6330201,"Proprietaire":"Lugeon","Statut":"Non renseigne","Prenom":"Louise","Nom":"Oboussier","Date de naissance":1774,"Nom de jeune fille":null,"Enfants":null,"Date de naissance des enfants":null,"Origine":"Lausanne","Date d arriv\u00e9e":"nee","Vocation":"Rentiere"},{"Adresse":"Place Saint-Fran\u00e7ois 18","Latitude":46.519677,"Longitude":6.6330201,"Proprietaire":"Lugeon","Statut":"Non renseigne","Prenom":"Marie","Nom":"Oboussier","Date de naissance":1770,"Nom de jeune fille":null,"Enfants":null,"Date de naissance des enfants":null,"Origine":"Lausanne","Date d arriv\u00e9e":"nee","Vocation":"Rentiere"},{"Adresse":"Place Saint-Fran\u00e7ois 9","Latitude":46.5200967,"Longitude":6.6337897,"Proprietaire":"Perregaux","Statut":"Marie ou Veuve","Prenom":"Alexandrine","Nom":"veibel","Date de naissance":1775,"Nom de jeune fille":"Perregaux","Enfants":null,"Date de naissance des enfants":null,"Origine":"Lausanne","Date d arriv\u00e9e":"nee","Vocation":"Locataire"},{"Adresse":"Place Saint-Fran\u00e7ois 8","Latitude":46.52016145,"Longitude":6.6336137572,"Proprietaire":"Mafeson","Statut":"Marie ou Veuve","Prenom":"Anne","Nom":"Beaumet","Date de naissance":1746,"Nom de jeune fille":"Duvilas","Enfants":null,"Date de naissance des enfants":null,"Origine":"Himes","Date d arriv\u00e9e":null,"Vocation":"Rentiere"},{"Adresse":"Place Saint-Fran\u00e7ois 8","Latitude":46.52016145,"Longitude":6.6336137572,"Proprietaire":"Mafeson","Statut":"Marie ou Veuve","Prenom":"Catherine","Nom":"Andre","Date de naissance":1790,"Nom de jeune fille":"Meyrat","Enfants":"Aline, Rosine, Auguste, Emile","Date de naissance des enfants":"1815, 1817, 1819, 1821","Origine":"Menistrol, departement de la Loire","Date d arriv\u00e9e":null,"Vocation":null},{"Adresse":"Place Saint-Fran\u00e7ois 8","Latitude":46.52016145,"Longitude":6.6336137572,"Proprietaire":"Mafeson","Statut":"Veuve","Prenom":"Non renseigne","Nom":"Dubochet","Date de naissance":1794,"Nom de jeune fille":"Villard","Enfants":null,"Date de naissance des enfants":null,"Origine":"Vevey","Date d arriv\u00e9e":null,"Vocation":null},{"Adresse":"Place Saint-Fran\u00e7ois 12","Latitude":46.5195456,"Longitude":6.6343695493,"Proprietaire":"Ferber","Statut":"Marie ou Veuve","Prenom":"Julie","Nom":"Dony","Date de naissance":1770,"Nom de jeune fille":"Bruel","Enfants":"Caroline","Date de naissance des enfants":1796,"Origine":"Prilly","Date d arriv\u00e9e":1779,"Vocation":"Lingere"},{"Adresse":"Place Saint-Fran\u00e7ois 13","Latitude":46.5195672,"Longitude":6.6324965,"Proprietaire":"Nicole","Statut":"Veuve","Prenom":"Non renseigne","Nom":"Haubing","Date de naissance":1756,"Nom de jeune fille":null,"Enfants":"Etiennette","Date de naissance des enfants":1794,"Origine":"geneve","Date d arriv\u00e9e":null,"Vocation":"Rentiere"},{"Adresse":"Place Saint-Fran\u00e7ois 14","Latitude":46.51909125,"Longitude":6.6342884652,"Proprietaire":"Vernaud","Statut":"Non renseigne","Prenom":"Frederique","Nom":"Geitz","Date de naissance":1784,"Nom de jeune fille":null,"Enfants":null,"Date de naissance des enfants":null,"Origine":"Vevey","Date d arriv\u00e9e":null,"Vocation":"Marchande"},{"Adresse":"Place Saint-Fran\u00e7ois 15","Latitude":46.5192609,"Longitude":6.6328546,"Proprietaire":"Bergier","Statut":"Non renseigne","Prenom":"Henriette","Nom":"de senarland","Date de naissance":1760,"Nom de jeune fille":null,"Enfants":null,"Date de naissance des enfants":null,"Origine":"Lausanne","Date d arriv\u00e9e":null,"Vocation":"Rentiere"},{"Adresse":"Place Saint-Fran\u00e7ois 13","Latitude":46.5195672,"Longitude":6.6324965,"Proprietaire":"Nicole","Statut":"Non renseigne","Prenom":"Isabelle","Nom":"Calame","Date de naissance":1762,"Nom de jeune fille":null,"Enfants":null,"Date de naissance des enfants":null,"Origine":"Non renseigne","Date d arriv\u00e9e":null,"Vocation":"Rentiere"},{"Adresse":"Place Saint-Laurent 2","Latitude":46.52234425,"Longitude":6.630782504,"Proprietaire":"Bamblanc","Statut":"Celibataire","Prenom":"Louise","Nom":"Bachoud","Date de naissance":"Non renseigne","Nom de jeune fille":null,"Enfants":null,"Date de naissance des enfants":null,"Origine":"Vevey","Date d arriv\u00e9e":null,"Vocation":"Lingere"},{"Adresse":"Place Saint-Laurent 1","Latitude":46.52234425,"Longitude":6.630782504,"Proprietaire":"Roguin","Statut":"Veuve","Prenom":"Non renseigne","Nom":"Weber","Date de naissance":1779,"Nom de jeune fille":"Pachdas","Enfants":"Susette, Mina","Date de naissance des enfants":"1805, 1806","Origine":"Glarens","Date d arriv\u00e9e":null,"Vocation":"Rentiere"},{"Adresse":"Place Saint-Laurent 1","Latitude":46.52234425,"Longitude":6.630782504,"Proprietaire":"Roguin","Statut":"Non renseigne","Prenom":"Demoiselle","Nom":"Debons","Date de naissance":1766,"Nom de jeune fille":null,"Enfants":null,"Date de naissance des enfants":null,"Origine":"Lausanne","Date d arriv\u00e9e":"nee","Vocation":"Rentiere"},{"Adresse":"Place Saint-Laurent 1","Latitude":46.52234425,"Longitude":6.630782504,"Proprietaire":"Roguin","Statut":"Non renseigne","Prenom":"Elisabeth","Nom":"Debons","Date de naissance":1776,"Nom de jeune fille":null,"Enfants":null,"Date de naissance des enfants":null,"Origine":"Lausanne","Date d arriv\u00e9e":"nee","Vocation":"Rentiere"},{"Adresse":"Route de Chavannes","Latitude":46.5205505,"Longitude":6.5963194,"Proprietaire":"Rouge","Statut":"Marie ou Veuve","Prenom":"Jeanne","Nom":"Rouge","Date de naissance":1774,"Nom de jeune fille":null,"Enfants":null,"Date de naissance des enfants":null,"Origine":"Lausanne","Date d arriv\u00e9e":null,"Vocation":"Cultive des terres"},{"Adresse":"Rue Chaucrau 17","Latitude":46.5223835,"Longitude":6.6306989,"Proprietaire":"Helfrick","Statut":"Veuve","Prenom":"Louise","Nom":"Favez","Date de naissance":null,"Nom de jeune fille":null,"Enfants":"Louise","Date de naissance des enfants":1808,"Origine":"Servion","Date d arriv\u00e9e":null,"Vocation":null},{"Adresse":"Rue Chaucrau 14 bis","Latitude":46.5223835,"Longitude":6.6306989,"Proprietaire":"Blanc","Statut":"Veuve","Prenom":"Marianne","Nom":"Scheick","Date de naissance":1796,"Nom de jeune fille":null,"Enfants":"Jeannette","Date de naissance des enfants":1830,"Origine":"Signau","Date d arriv\u00e9e":1831,"Vocation":"Ouvriere"},{"Adresse":"Rue Chaucrau 17","Latitude":46.5223835,"Longitude":6.6306989,"Proprietaire":"Helfrick","Statut":"Non renseigne","Prenom":"Fran\u00e7oise","Nom":"Gillieron","Date de naissance":1802,"Nom de jeune fille":null,"Enfants":null,"Date de naissance des enfants":null,"Origine":"Ropraz","Date d arriv\u00e9e":null,"Vocation":null},{"Adresse":"Rue Chaucrau 18 bis","Latitude":46.5223835,"Longitude":6.6306989,"Proprietaire":"Grobety","Statut":"Veuve","Prenom":"Non renseigne","Nom":"Grobety","Date de naissance":1753,"Nom de jeune fille":null,"Enfants":null,"Date de naissance des enfants":null,"Origine":"Ballaigue","Date d arriv\u00e9e":"nee","Vocation":"Vigneronne"},{"Adresse":"Rue Chaucrau 22 bis","Latitude":46.5223835,"Longitude":6.6306989,"Proprietaire":"Hollard","Statut":"Veuve","Prenom":"Louise","Nom":"Moinot","Date de naissance":1793,"Nom de jeune fille":"Pingel","Enfants":"Louise, Betty","Date de naissance des enfants":"1819, 1820","Origine":"Lavigny","Date d arriv\u00e9e":null,"Vocation":"Institutrice"},{"Adresse":"Rue Chaucrau 22","Latitude":46.5223835,"Longitude":6.6306989,"Proprietaire":"Hollard","Statut":"Non renseigne","Prenom":"Elisabeth","Nom":"Hollard","Date de naissance":1759,"Nom de jeune fille":null,"Enfants":null,"Date de naissance des enfants":null,"Origine":"Lausanne","Date d arriv\u00e9e":"nee","Vocation":"Rentiere"},{"Adresse":"Rue Chaucrau 21","Latitude":46.5223835,"Longitude":6.6306989,"Proprietaire":"Recordon","Statut":"Non renseigne","Prenom":"Georgina","Nom":"Muller","Date de naissance":1770,"Nom de jeune fille":null,"Enfants":"Caroline, Henriette","Date de naissance des enfants":"1796, 1812","Origine":"Lausanne","Date d arriv\u00e9e":"nee","Vocation":"Rentiere"},{"Adresse":"Rue Chaucrau 32","Latitude":46.5223835,"Longitude":6.6306989,"Proprietaire":"Berche","Statut":"Marie ou Veuve","Prenom":"Marie","Nom":"Pernet","Date de naissance":1790,"Nom de jeune fille":null,"Enfants":null,"Date de naissance des enfants":null,"Origine":"Ormont","Date d arriv\u00e9e":1822,"Vocation":"Vigneronne"},{"Adresse":"Rue Chaucrau 33","Latitude":46.5223835,"Longitude":6.6306989,"Proprietaire":"Thuillard","Statut":"Non renseigne","Prenom":"Corbaz","Nom":"Lin","Date de naissance":1800,"Nom de jeune fille":null,"Enfants":null,"Date de naissance des enfants":null,"Origine":"Riez","Date d arriv\u00e9e":1830,"Vocation":"Tailleuse"},{"Adresse":"Rue Chaucrau 25","Latitude":46.5223835,"Longitude":6.6306989,"Proprietaire":"Badanl","Statut":"Non renseigne","Prenom":"Henriette","Nom":"Borel","Date de naissance":1767,"Nom de jeune fille":null,"Enfants":null,"Date de naissance des enfants":null,"Origine":"Geneve","Date d arriv\u00e9e":null,"Vocation":null},{"Adresse":"Rue Chaucrau 33","Latitude":46.5223835,"Longitude":6.6306989,"Proprietaire":"Thuillard","Statut":"Non renseigne","Prenom":"Henriette","Nom":"Crispin","Date de naissance":1780,"Nom de jeune fille":null,"Enfants":null,"Date de naissance des enfants":null,"Origine":"Lausanne","Date d arriv\u00e9e":"nee","Vocation":"Vigneronne"},{"Adresse":"Rue Chaucrau 29","Latitude":46.5223835,"Longitude":6.6306989,"Proprietaire":"Paschoud","Statut":"Non renseigne","Prenom":"Marie","Nom":"Pachel","Date de naissance":1779,"Nom de jeune fille":null,"Enfants":"Louis, Jenny, Jean, Susette","Date de naissance des enfants":"1816, 1819, 1821, 1823","Origine":"Epalinges","Date d arriv\u00e9e":"nee","Vocation":null},{"Adresse":"Rue Chaucrau 27","Latitude":46.5223835,"Longitude":6.6306989,"Proprietaire":"Dentan","Statut":"Non renseigne","Prenom":"Susanne","Nom":"Dentan","Date de naissance":1754,"Nom de jeune fille":null,"Enfants":null,"Date de naissance des enfants":null,"Origine":"Lutry","Date d arriv\u00e9e":1778,"Vocation":"Fileuse"},{"Adresse":"Rue Chaucrau 28","Latitude":46.5223835,"Longitude":6.6306989,"Proprietaire":"Collomb","Statut":"Non renseigne","Prenom":"Susanne","Nom":"Chollet","Date de naissance":1775,"Nom de jeune fille":null,"Enfants":"Frederic, Fanny","Date de naissance des enfants":"1811, 1814","Origine":"Maracon","Date d arriv\u00e9e":null,"Vocation":"Manoeuvre"},{"Adresse":"Rue Chaucrau 30","Latitude":46.5223835,"Longitude":6.6306989,"Proprietaire":"Penneveyret","Statut":"Non renseigne","Prenom":"Susanne","Nom":"Leyvraz","Date de naissance":1793,"Nom de jeune fille":null,"Enfants":"Caroline","Date de naissance des enfants":1818,"Origine":"St. Saphorin","Date d arriv\u00e9e":"nee","Vocation":"Marchande"},{"Adresse":"Rue Chaucrau 34","Latitude":46.5223835,"Longitude":6.6306989,"Proprietaire":"Jamdmeyer","Statut":"Veuve","Prenom":"Non renseigne","Nom":"Veibel","Date de naissance":1798,"Nom de jeune fille":null,"Enfants":"Jenny","Date de naissance des enfants":1811,"Origine":"Meyhired","Date d arriv\u00e9e":"nee","Vocation":"Tailleuse"},{"Adresse":"Rue Chaucrau 36","Latitude":46.5223835,"Longitude":6.6306989,"Proprietaire":"Jaunin","Statut":"Veuve","Prenom":"Non renseigne","Nom":"Cretenoud","Date de naissance":1776,"Nom de jeune fille":null,"Enfants":"Francois, Frederic, Jean","Date de naissance des enfants":"1819, 1821, 1825","Origine":"Renens","Date d arriv\u00e9e":null,"Vocation":null},{"Adresse":"Rue Chaucrau 37","Latitude":46.5223835,"Longitude":6.6306989,"Proprietaire":"Jaunind","Statut":"Non renseigne","Prenom":"Charlotte","Nom":"Ringger","Date de naissance":1780,"Nom de jeune fille":null,"Enfants":null,"Date de naissance des enfants":null,"Origine":"Rolle","Date d arriv\u00e9e":"nee","Vocation":"Fripiere"},{"Adresse":"Rue de Bourg 7","Latitude":46.5202818,"Longitude":6.634259057,"Proprietaire":"Hignou","Statut":"Non renseigne","Prenom":"Charlotte","Nom":"Hignou","Date de naissance":1776,"Nom de jeune fille":null,"Enfants":null,"Date de naissance des enfants":null,"Origine":"Corporation. Fran\u00e7aise","Date d arriv\u00e9e":null,"Vocation":"Libraire"},{"Adresse":"Rue de Bourg 3","Latitude":46.5201939,"Longitude":6.6341083743,"Proprietaire":"Dellient","Statut":"Non renseigne","Prenom":"Pauline","Nom":"Rupf","Date de naissance":1804,"Nom de jeune fille":null,"Enfants":null,"Date de naissance des enfants":null,"Origine":"Genay","Date d arriv\u00e9e":null,"Vocation":null},{"Adresse":"Rue de Bourg 1","Latitude":46.5201305,"Longitude":6.6339991,"Proprietaire":"Jaccard","Statut":"Non renseigne","Prenom":"Pauline","Nom":"Demolin","Date de naissance":1769,"Nom de jeune fille":null,"Enfants":null,"Date de naissance des enfants":null,"Origine":"Lausanne","Date d arriv\u00e9e":null,"Vocation":"Rentiere"},{"Adresse":"Rue de Bourg 8","Latitude":46.5200362,"Longitude":6.6344889,"Proprietaire":"Wenger","Statut":"Non renseigne","Prenom":"Louise","Nom":"Delaperry","Date de naissance":1803,"Nom de jeune fille":null,"Enfants":null,"Date de naissance des enfants":null,"Origine":"Lausanne","Date d arriv\u00e9e":null,"Vocation":"-J-uilleuse"},{"Adresse":"Rue de Bourg 8","Latitude":46.5200362,"Longitude":6.6344889,"Proprietaire":"Wenger","Statut":"Non renseigne","Prenom":"Susanne","Nom":"Delaperry","Date de naissance":1805,"Nom de jeune fille":null,"Enfants":null,"Date de naissance des enfants":null,"Origine":"Lausanne","Date d arriv\u00e9e":null,"Vocation":"-J-uilleuse"},{"Adresse":"Rue de Bourg 12","Latitude":46.5200333,"Longitude":6.6349163,"Proprietaire":"Knat","Statut":"Non renseigne","Prenom":"Christine","Nom":"Nicole","Date de naissance":1791,"Nom de jeune fille":null,"Enfants":null,"Date de naissance des enfants":null,"Origine":"Non renseigne","Date d arriv\u00e9e":null,"Vocation":null},{"Adresse":"Rue de Bourg 12","Latitude":46.5200333,"Longitude":6.6349163,"Proprietaire":"Knat","Statut":"Non renseigne","Prenom":"Susanne","Nom":"Nicole","Date de naissance":1790,"Nom de jeune fille":null,"Enfants":null,"Date de naissance des enfants":null,"Origine":"Chenet","Date d arriv\u00e9e":null,"Vocation":"Journaliere"},{"Adresse":"Rue de Bourg 15","Latitude":46.520191,"Longitude":6.6346831471,"Proprietaire":"Longchamp","Statut":"Marie ou Veuve","Prenom":"Lydie","Nom":"Fontanne","Date de naissance":1773,"Nom de jeune fille":null,"Enfants":"Fran\u00e7ois","Date de naissance des enfants":1798,"Origine":"Corporation. Fran\u00e7aise","Date d arriv\u00e9e":null,"Vocation":"Marchande"},{"Adresse":"Rue de Bourg 14","Latitude":46.5200124,"Longitude":6.6350521,"Proprietaire":"Verrey","Statut":"Marie ou Veuve","Prenom":"Elisabeth","Nom":"Blanchet","Date de naissance":1778,"Nom de jeune fille":null,"Enfants":null,"Date de naissance des enfants":null,"Origine":"Lutry","Date d arriv\u00e9e":null,"Vocation":null},{"Adresse":"Rue de Bourg 14","Latitude":46.5200124,"Longitude":6.6350521,"Proprietaire":"Verrey","Statut":"Non renseigne","Prenom":"Charlotte","Nom":"Blanchet","Date de naissance":1814,"Nom de jeune fille":null,"Enfants":null,"Date de naissance des enfants":null,"Origine":"Lutry","Date d arriv\u00e9e":null,"Vocation":null},{"Adresse":"Rue de Bourg 22","Latitude":46.5199749,"Longitude":6.6356141,"Proprietaire":"Coeytaux","Statut":"Veuve","Prenom":"Non renseigne","Nom":"Schutel","Date de naissance":"Non renseigne","Nom de jeune fille":null,"Enfants":null,"Date de naissance des enfants":null,"Origine":"Bumplitz","Date d arriv\u00e9e":null,"Vocation":"Pensionnaire"},{"Adresse":"Rue de Bourg 22","Latitude":46.5199749,"Longitude":6.6356141,"Proprietaire":"Coeytaux","Statut":"Non renseigne","Prenom":"Catherine","Nom":"Chambaz","Date de naissance":1771,"Nom de jeune fille":null,"Enfants":null,"Date de naissance des enfants":null,"Origine":"Meltille","Date d arriv\u00e9e":null,"Vocation":"Fileuse"},{"Adresse":"Rue de Bourg 22","Latitude":46.5199749,"Longitude":6.6356141,"Proprietaire":"Coeytaux","Statut":"Veuve","Prenom":"Non renseigne","Nom":"Taillens","Date de naissance":1782,"Nom de jeune fille":null,"Enfants":null,"Date de naissance des enfants":null,"Origine":"Lausanne","Date d arriv\u00e9e":null,"Vocation":"Rentiere"},{"Adresse":"Rue de Bourg 19","Latitude":46.5201808,"Longitude":6.6349012722,"Proprietaire":"Spring","Statut":"Veuve","Prenom":"Non renseigne","Nom":"Francillon","Date de naissance":1766,"Nom de jeune fille":null,"Enfants":null,"Date de naissance des enfants":null,"Origine":"Lausanne","Date d arriv\u00e9e":null,"Vocation":"Rentiere"},{"Adresse":"Rue de Bourg 21","Latitude":46.52021135,"Longitude":6.6349670549,"Proprietaire":"Burnens","Statut":"Non renseigne","Prenom":"Fran\u00e7oise Louise","Nom":"Dantreizer","Date de naissance":1803,"Nom de jeune fille":null,"Enfants":null,"Date de naissance des enfants":null,"Origine":"Neuchatel","Date d arriv\u00e9e":null,"Vocation":"Institutrice"},{"Adresse":"Rue de Bourg 28","Latitude":46.519869,"Longitude":6.6362795,"Proprietaire":"Constant","Statut":"Marie ou Veuve","Prenom":"Elisabeth","Nom":"Heller","Date de naissance":1796,"Nom de jeune fille":null,"Enfants":null,"Date de naissance des enfants":null,"Origine":"Berne","Date d arriv\u00e9e":null,"Vocation":"Rentiere"},{"Adresse":"Rue de Bourg 27","Latitude":46.5201426,"Longitude":6.6351941607,"Proprietaire":"Bourgeois","Statut":"Veuve","Prenom":"Non renseigne","Nom":"Bourgeois","Date de naissance":1763,"Nom de jeune fille":null,"Enfants":"Antoine","Date de naissance des enfants":1809,"Origine":"Lutry","Date d arriv\u00e9e":null,"Vocation":"Rentiere"},{"Adresse":"Rue de Bourg 33","Latitude":46.5200969,"Longitude":6.6357277827,"Proprietaire":"Valentin","Statut":"Marie ou Veuve","Prenom":"Comtesse Rosine","Nom":"de Haurer","Date de naissance":"Non renseigne","Nom de jeune fille":"Larisot","Enfants":"Rose, Jade","Date de naissance des enfants":null,"Origine":"Allemande","Date d arriv\u00e9e":null,"Vocation":"Rentiere"},{"Adresse":"Rue de Bourg 30","Latitude":46.5198347,"Longitude":6.6364858,"Proprietaire":"Pollier","Statut":"Marie ou Veuve","Prenom":"Non renseigne","Nom":"Krieg","Date de naissance":1801,"Nom de jeune fille":"Corbaz","Enfants":"David","Date de naissance des enfants":1824,"Origine":"Berne","Date d arriv\u00e9e":null,"Vocation":"Blanchisseuse"},{"Adresse":"Rue de Bourg 31","Latitude":46.5201385,"Longitude":6.6355671889,"Proprietaire":"Mestral","Statut":"Marie ou Veuve","Prenom":"Henriette","Nom":"De Mestral","Date de naissance":1740,"Nom de jeune fille":"De St Saphorin","Enfants":"Henriette","Date de naissance des enfants":1767,"Origine":"Lausanne","Date d arriv\u00e9e":null,"Vocation":"Rentiere"},{"Adresse":"Rue de Bourg 30","Latitude":46.5198347,"Longitude":6.6364858,"Proprietaire":"Pollier","Statut":"Non renseigne","Prenom":"Angletine","Nom":"Effinguer","Date de naissance":1770,"Nom de jeune fille":null,"Enfants":null,"Date de naissance des enfants":null,"Origine":"Lausanne","Date d arriv\u00e9e":null,"Vocation":"Rentiere"},{"Adresse":"Rue de Bourg 28","Latitude":46.519869,"Longitude":6.6362795,"Proprietaire":"Constant","Statut":"Non renseigne","Prenom":"Catherine","Nom":"De Seigneux","Date de naissance":1746,"Nom de jeune fille":null,"Enfants":"Charlotte, Rosette","Date de naissance des enfants":"1780, 1787","Origine":"Lausanne","Date d arriv\u00e9e":null,"Vocation":"Rentiere"},{"Adresse":"Rue de Bourg 30","Latitude":46.5198347,"Longitude":6.6364858,"Proprietaire":"Pollier","Statut":"Non renseigne","Prenom":"Marie","Nom":"De Pollier","Date de naissance":"Non renseigne","Nom de jeune fille":null,"Enfants":null,"Date de naissance des enfants":null,"Origine":"Lausanne","Date d arriv\u00e9e":null,"Vocation":"Rentiere"},{"Adresse":"Rue de Bourg 30","Latitude":46.5198347,"Longitude":6.6364858,"Proprietaire":"Pollier","Statut":"Veuve","Prenom":"Non renseigne","Nom":"Scherer","Date de naissance":1776,"Nom de jeune fille":"Algosser","Enfants":"Charlotte, Adelaide, Louis","Date de naissance des enfants":"1796, 1806, 1803","Origine":"Walterswil","Date d arriv\u00e9e":null,"Vocation":"Marchande"},{"Adresse":"Rue de Bourg 38","Latitude":46.5200686,"Longitude":6.6338506,"Proprietaire":"Pollier de Bottens","Statut":"Non renseigne","Prenom":"Alexandrine","Nom":"de Gingins","Date de naissance":"Non renseigne","Nom de jeune fille":null,"Enfants":null,"Date de naissance des enfants":null,"Origine":"Berne","Date d arriv\u00e9e":null,"Vocation":null},{"Adresse":"Rue de Bourg 37","Latitude":46.52010575,"Longitude":6.6360231179,"Proprietaire":"Cerjeat","Statut":"Marie ou Veuve","Prenom":"Jeanne Marie","Nom":"Ganeard","Date de naissance":1770,"Nom de jeune fille":null,"Enfants":null,"Date de naissance des enfants":null,"Origine":"Lausanne","Date d arriv\u00e9e":null,"Vocation":"Monture"},{"Adresse":"Rue de Bourg 38","Latitude":46.5200686,"Longitude":6.6338506,"Proprietaire":"Pollier de Bottens","Statut":"Non renseigne","Prenom":"Jeanne","Nom":"Polier","Date de naissance":1758,"Nom de jeune fille":null,"Enfants":null,"Date de naissance des enfants":null,"Origine":"Lausanne","Date d arriv\u00e9e":null,"Vocation":"Monture"},{"Adresse":"Rue de Bourg 34","Latitude":46.5200686,"Longitude":6.6338506,"Proprietaire":"Valier","Statut":"Marie ou Veuve","Prenom":"Henriette","Nom":"Feller","Date de naissance":1800,"Nom de jeune fille":null,"Enfants":null,"Date de naissance des enfants":null,"Origine":"Orbe","Date d arriv\u00e9e":null,"Vocation":"Institutrice"},{"Adresse":"Rue de Bourg 40","Latitude":46.5200686,"Longitude":6.6338506,"Proprietaire":"Crousaz","Statut":"Non renseigne","Prenom":"Elisabeth","Nom":"Crousaz","Date de naissance":1804,"Nom de jeune fille":null,"Enfants":null,"Date de naissance des enfants":null,"Origine":"Non renseigne","Date d arriv\u00e9e":null,"Vocation":null},{"Adresse":"Rue de Bourg 40","Latitude":46.5200686,"Longitude":6.6338506,"Proprietaire":"Crousaz","Statut":"Non renseigne","Prenom":"Marie","Nom":"Crousaz","Date de naissance":1808,"Nom de jeune fille":null,"Enfants":null,"Date de naissance des enfants":null,"Origine":"Non renseigne","Date d arriv\u00e9e":null,"Vocation":null},{"Adresse":"Rue Cheneau de Bourg 14 bis","Latitude":46.5204404,"Longitude":6.6363593,"Proprietaire":"Blanc","Statut":"Celibataire","Prenom":"Jeannette","Nom":"Gaudin","Date de naissance":1797,"Nom de jeune fille":null,"Enfants":null,"Date de naissance des enfants":null,"Origine":"Lausanne","Date d arriv\u00e9e":null,"Vocation":"Journaliere"},{"Adresse":"Rue Cheneau de Bourg 14 bis","Latitude":46.5204404,"Longitude":6.6363593,"Proprietaire":"Blanc","Statut":"Celibataire","Prenom":"Marianne","Nom":"Gaudin","Date de naissance":1797,"Nom de jeune fille":null,"Enfants":null,"Date de naissance des enfants":null,"Origine":"Lausanne","Date d arriv\u00e9e":null,"Vocation":"Journaliere"},{"Adresse":"Rue Cheneau de Bourg 13","Latitude":46.5204404,"Longitude":6.6363593,"Proprietaire":"Chapuis","Statut":"Veuve","Prenom":"Non renseigne","Nom":"Chambaz","Date de naissance":1797,"Nom de jeune fille":null,"Enfants":null,"Date de naissance des enfants":null,"Origine":"Cully","Date d arriv\u00e9e":null,"Vocation":null},{"Adresse":"Rue Cheneau de Bourg 8","Latitude":46.5203293,"Longitude":6.6362499,"Proprietaire":"Keller","Statut":"Veuve","Prenom":"Non renseigne","Nom":"Wierchy","Date de naissance":1772,"Nom de jeune fille":"Dolser","Enfants":"Bernard","Date de naissance des enfants":1808,"Origine":"Allemagne","Date d arriv\u00e9e":null,"Vocation":"Gypsiere"},{"Adresse":"Rue Cheneau de Bourg 12","Latitude":46.5204404,"Longitude":6.6363593,"Proprietaire":"Rosset","Statut":"Veuve","Prenom":"Non renseigne","Nom":"Reymond","Date de naissance":1774,"Nom de jeune fille":null,"Enfants":"Marie, Jeanny","Date de naissance des enfants":"1808, 1816","Origine":"Autre","Date d arriv\u00e9e":null,"Vocation":"Tailleuse"},{"Adresse":"Rue Cheneau de Bourg 11","Latitude":46.5204404,"Longitude":6.6363593,"Proprietaire":"Greiner","Statut":"Veuve","Prenom":"Non renseigne","Nom":"Loire","Date de naissance":1774,"Nom de jeune fille":null,"Enfants":null,"Date de naissance des enfants":null,"Origine":"Coinsins","Date d arriv\u00e9e":null,"Vocation":"Courtepointiere"},{"Adresse":"Rue Cheneau de Bourg 12","Latitude":46.5204404,"Longitude":6.6363593,"Proprietaire":"Rosset","Statut":"Non renseigne","Prenom":"Anne Rose","Nom":"Humbert","Date de naissance":1798,"Nom de jeune fille":null,"Enfants":null,"Date de naissance des enfants":null,"Origine":"France","Date d arriv\u00e9e":null,"Vocation":"Lingere"},{"Adresse":"Rue Cheneau de Bourg 7","Latitude":46.5207041,"Longitude":6.6367021382,"Proprietaire":"Chanson","Statut":"Veuve","Prenom":"Non renseigne","Nom":"Pamblanc","Date de naissance":1767,"Nom de jeune fille":null,"Enfants":"Louise","Date de naissance des enfants":1790,"Origine":"Lausanne","Date d arriv\u00e9e":null,"Vocation":null},{"Adresse":"Rue Cheneau de Bourg 8","Latitude":46.5203293,"Longitude":6.6362499,"Proprietaire":"Keller","Statut":"Veuve","Prenom":"Non renseigne","Nom":"Margot","Date de naissance":1781,"Nom de jeune fille":null,"Enfants":"Henri","Date de naissance des enfants":1809,"Origine":"Sainte-Croix","Date d arriv\u00e9e":null,"Vocation":"Journaliere"},{"Adresse":"Rue Cheneau de Bourg 6","Latitude":46.5204998,"Longitude":6.636272,"Proprietaire":"Merlaz","Statut":"Non renseigne","Prenom":"Jeanne Marie","Nom":"Renaud","Date de naissance":"Non renseigne","Nom de jeune fille":null,"Enfants":null,"Date de naissance des enfants":null,"Origine":"St Georges","Date d arriv\u00e9e":null,"Vocation":"Tailleuse"},{"Adresse":"Rue Cheneau de Bourg 13","Latitude":46.5204404,"Longitude":6.6363593,"Proprietaire":"Rosset","Statut":"Marie ou Veuve","Prenom":"Jeanne","Nom":"Meyer","Date de naissance":"Non renseigne","Nom de jeune fille":null,"Enfants":"Emma","Date de naissance des enfants":1824,"Origine":"Non renseigne","Date d arriv\u00e9e":null,"Vocation":"Ouvriere"},{"Adresse":"Rue Cheneau de Bourg 19","Latitude":46.5204404,"Longitude":6.6363593,"Proprietaire":"Verrey","Statut":"Non renseigne","Prenom":"Isabelle","Nom":"Baudet","Date de naissance":1772,"Nom de jeune fille":null,"Enfants":null,"Date de naissance des enfants":null,"Origine":"Bottens","Date d arriv\u00e9e":null,"Vocation":"Repasseuse"},{"Adresse":"Rue Cheneau de Bourg 19","Latitude":46.5204404,"Longitude":6.6363593,"Proprietaire":"Verrey","Statut":"Non renseigne","Prenom":"louise","Nom":"Baudet","Date de naissance":1774,"Nom de jeune fille":null,"Enfants":null,"Date de naissance des enfants":null,"Origine":"Bottens","Date d arriv\u00e9e":null,"Vocation":"Repasseuse"},{"Adresse":"Rue Cheneau de Bourg 20","Latitude":46.5204404,"Longitude":6.6363593,"Proprietaire":"Maget","Statut":"Non renseigne","Prenom":"Louise","Nom":"Pachel","Date de naissance":1805,"Nom de jeune fille":null,"Enfants":null,"Date de naissance des enfants":null,"Origine":"Epalinges","Date d arriv\u00e9e":null,"Vocation":"Tailleuse"},{"Adresse":"Rue Cheneau de Bourg 18","Latitude":46.5204404,"Longitude":6.6363593,"Proprietaire":"Baud","Statut":"Veuve","Prenom":"Non renseigne","Nom":"Baud","Date de naissance":1766,"Nom de jeune fille":null,"Enfants":null,"Date de naissance des enfants":null,"Origine":"Etagnieres","Date d arriv\u00e9e":null,"Vocation":"Rentiere"},{"Adresse":"Rue Cheneau de Bourg 18","Latitude":46.5204404,"Longitude":6.6363593,"Proprietaire":"Baud","Statut":"Veuve","Prenom":"Non renseigne","Nom":"Ogiez","Date de naissance":1763,"Nom de jeune fille":"Muller","Enfants":"Elie","Date de naissance des enfants":1811,"Origine":"France","Date d arriv\u00e9e":null,"Vocation":"Garde malade"},{"Adresse":"Rue Cheneau de Bourg 21","Latitude":46.5204404,"Longitude":6.6363593,"Proprietaire":"Pascal","Statut":"Non renseigne","Prenom":"Jeanne Louise","Nom":"Lavanchy","Date de naissance":"Non renseigne","Nom de jeune fille":null,"Enfants":null,"Date de naissance des enfants":null,"Origine":"Lutry","Date d arriv\u00e9e":null,"Vocation":"Tailleuse"},{"Adresse":"Rue Cheneau de Bourg 21","Latitude":46.5204404,"Longitude":6.6363593,"Proprietaire":"Pascal","Statut":"Veuve","Prenom":"Non renseigne","Nom":"Pascal","Date de naissance":1779,"Nom de jeune fille":null,"Enfants":"Louise","Date de naissance des enfants":1809,"Origine":"Pompaples","Date d arriv\u00e9e":null,"Vocation":"Vendeuse"},{"Adresse":"Rue Cheneau de Bourg 35","Latitude":46.5204404,"Longitude":6.6363593,"Proprietaire":"Grand","Statut":"Veuve","Prenom":"Non renseigne","Nom":"Cretton","Date de naissance":1780,"Nom de jeune fille":null,"Enfants":"Marie","Date de naissance des enfants":1809,"Origine":"Non renseigne","Date d arriv\u00e9e":null,"Vocation":"Cuisiniere"},{"Adresse":"Rue Cheneau de Bourg 40","Latitude":46.5204404,"Longitude":6.6363593,"Proprietaire":"Kirchman","Statut":"Veuve","Prenom":"Non renseigne","Nom":"Pache","Date de naissance":1789,"Nom de jeune fille":null,"Enfants":"Marianne","Date de naissance des enfants":1809,"Origine":"Epalinges","Date d arriv\u00e9e":null,"Vocation":"Meuniere"},{"Adresse":"Rue Cheneau de Bourg 39","Latitude":46.5204404,"Longitude":6.6363593,"Proprietaire":"Demartines","Statut":"Veuve","Prenom":"Non renseigne","Nom":"Blanc","Date de naissance":1770,"Nom de jeune fille":null,"Enfants":"Samuel, Francois","Date de naissance des enfants":1806.18,"Origine":"Lausanne","Date d arriv\u00e9e":null,"Vocation":"Journaliere"},{"Adresse":"Rue Cheneau de Bourg 38","Latitude":46.5204404,"Longitude":6.6363593,"Proprietaire":"Wehilix","Statut":"Veuve","Prenom":"Non renseigne","Nom":"Favex","Date de naissance":1775,"Nom de jeune fille":null,"Enfants":"Hugette, Louise","Date de naissance des enfants":1806.18,"Origine":"Vuarrens","Date d arriv\u00e9e":null,"Vocation":"Journaliere"},{"Adresse":"Rue Cheneau de Bourg 39","Latitude":46.5204404,"Longitude":6.6363593,"Proprietaire":"Demartines","Statut":"Marie ou Veuve","Prenom":"Jeanette","Nom":"Falconnier","Date de naissance":1778,"Nom de jeune fille":null,"Enfants":"Jube","Date de naissance des enfants":1803,"Origine":"Vuillens","Date d arriv\u00e9e":null,"Vocation":"Journaliere"},{"Adresse":"Rue Cheneau de Bourg 46","Latitude":46.5204404,"Longitude":6.6363593,"Proprietaire":"Coeytaux","Statut":"Veuve","Prenom":"Non renseigne","Nom":"Parisod","Date de naissance":1795,"Nom de jeune fille":"Magnin","Enfants":"Louis, Jeannette","Date de naissance des enfants":"1800, 1808","Origine":"Lausanne","Date d arriv\u00e9e":null,"Vocation":"Rentiere"},{"Adresse":"Rue Cheneau de Bourg 46","Latitude":46.5204404,"Longitude":6.6363593,"Proprietaire":"Coeytaux","Statut":"Veuve","Prenom":"Non renseigne","Nom":"Chapuis","Date de naissance":1788,"Nom de jeune fille":"Lombard","Enfants":null,"Date de naissance des enfants":null,"Origine":"Lausanne","Date d arriv\u00e9e":null,"Vocation":"Rentiere"},{"Adresse":"Rue Cheneau de Bourg 42","Latitude":46.5204404,"Longitude":6.6363593,"Proprietaire":"Blanc","Statut":"Marie ou Veuve","Prenom":"Femme de Valentin","Nom":"Stortz","Date de naissance":"Non renseigne","Nom de jeune fille":"Chevalley","Enfants":"Jenny, Louise","Date de naissance des enfants":"1820, 1823","Origine":"Lavigny","Date d arriv\u00e9e":null,"Vocation":"Journaliere"},{"Adresse":"Rue Cheneau de Bourg 50","Latitude":46.5204404,"Longitude":6.6363593,"Proprietaire":"Chapuis","Statut":"Veuve","Prenom":"Non renseigne","Nom":"Mosslin","Date de naissance":"Non renseigne","Nom de jeune fille":null,"Enfants":"Marguerite","Date de naissance des enfants":null,"Origine":"Bern","Date d arriv\u00e9e":null,"Vocation":"couturiere"},{"Adresse":"Rue Cheneau de Bourg 48","Latitude":46.5204404,"Longitude":6.6363593,"Proprietaire":"Favrat","Statut":"Veuve","Prenom":"Non renseigne","Nom":"Prolon","Date de naissance":1768,"Nom de jeune fille":"Fraug","Enfants":"Antoine, Jean","Date de naissance des enfants":"1797, 1799","Origine":"Cressy","Date d arriv\u00e9e":null,"Vocation":"Briselleuse"},{"Adresse":"Rue Cite Derriere 5","Latitude":46.52324365,"Longitude":6.6357844386,"Proprietaire":"Chevalley","Statut":"Marie ou Veuve","Prenom":"Fanchette","Nom":"Reymond","Date de naissance":1795,"Nom de jeune fille":null,"Enfants":"Jeannette","Date de naissance des enfants":1818,"Origine":"L'Abbaye","Date d arriv\u00e9e":null,"Vocation":"Tailleuse"},{"Adresse":"Rue Cite Derriere 1","Latitude":46.52403795,"Longitude":6.6359496295,"Proprietaire":"Ballif","Statut":"Marie ou Veuve","Prenom":"Susanne","Nom":"Cartier","Date de naissance":1790,"Nom de jeune fille":null,"Enfants":"Emma","Date de naissance des enfants":1813,"Origine":"Lausanne","Date d arriv\u00e9e":null,"Vocation":"Rentiere"},{"Adresse":"Rue Cite Derriere 3","Latitude":46.5243863,"Longitude":6.6362661035,"Proprietaire":"Bourkart","Statut":"Veuve","Prenom":"Non renseigne","Nom":"Barrat","Date de naissance":1785,"Nom de jeune fille":null,"Enfants":"Marie, Fabien, Jeannette","Date de naissance des enfants":"1810, 1812, 1816","Origine":"Frybourg","Date d arriv\u00e9e":null,"Vocation":"Journaliere"},{"Adresse":"Rue Cite Derriere 2","Latitude":46.5229971,"Longitude":6.6361385012,"Proprietaire":"Guisan","Statut":"Veuve","Prenom":"Non renseigne","Nom":"Guisans","Date de naissance":1780,"Nom de jeune fille":null,"Enfants":"Charles, Fran\u00e7ois, Louis, Gabrielle","Date de naissance des enfants":"1804, 1805, 1807, 1815","Origine":"Avenches","Date d arriv\u00e9e":null,"Vocation":"Rentiere"},{"Adresse":"Rue Cite Derriere 3","Latitude":46.5243863,"Longitude":6.6362661035,"Proprietaire":"Bourkart","Statut":"Non renseigne","Prenom":"Louise","Nom":"Besson","Date de naissance":1788,"Nom de jeune fille":null,"Enfants":null,"Date de naissance des enfants":null,"Origine":"Freytorrens","Date d arriv\u00e9e":1827,"Vocation":"Couturiere"},{"Adresse":"Rue Cite Derriere 9","Latitude":46.5235755,"Longitude":6.6359144738,"Proprietaire":"Corbaz","Statut":"Marie ou Veuve","Prenom":"Susette","Nom":"Corbaz","Date de naissance":1787,"Nom de jeune fille":"Kog","Enfants":"Louis, Fran\u00e7oise","Date de naissance des enfants":"1820, 1822","Origine":"Le mont","Date d arriv\u00e9e":null,"Vocation":null},{"Adresse":"Rue Cite Derriere 9","Latitude":46.5235755,"Longitude":6.6359144738,"Proprietaire":"Corbaz","Statut":"Marie ou Veuve","Prenom":"Veronique","Nom":"Corbaz","Date de naissance":1769,"Nom de jeune fille":"Borgeau","Enfants":"Samuel, Marguerite","Date de naissance des enfants":"1808, 1809","Origine":"Lausanne","Date d arriv\u00e9e":null,"Vocation":"Journaliere"},{"Adresse":"Rue Cite Derriere 8","Latitude":46.52312505,"Longitude":6.6360188597,"Proprietaire":"Corbaz","Statut":"Veuve","Prenom":"Non renseigne","Nom":"Corbaz","Date de naissance":1789,"Nom de jeune fille":"Narbel","Enfants":"Susette","Date de naissance des enfants":1820,"Origine":"Mont","Date d arriv\u00e9e":null,"Vocation":"Lessiveuse"},{"Adresse":"Rue Cite Derriere 12","Latitude":46.5232645,"Longitude":6.636123158,"Proprietaire":"Chappuis","Statut":"Veuve","Prenom":"Non renseigne","Nom":"Chappuis","Date de naissance":1784,"Nom de jeune fille":"Buffat","Enfants":"Louise, Louis","Date de naissance des enfants":"1820, 1822","Origine":"Vuarens","Date d arriv\u00e9e":null,"Vocation":"Vendeuse de vin"},{"Adresse":"Rue Cite Derriere 12","Latitude":46.5232645,"Longitude":6.636123158,"Proprietaire":"Bastian","Statut":"Veuve","Prenom":"Non renseigne","Nom":"Perret","Date de naissance":1745,"Nom de jeune fille":"Dusserto","Enfants":"Jean, Lisette, Henriette","Date de naissance des enfants":"1805, 1802, 1814","Origine":"Essertine","Date d arriv\u00e9e":null,"Vocation":"Journaliere"},{"Adresse":"Rue Cite Derriere 15","Latitude":46.52377,"Longitude":6.6360493145,"Proprietaire":"Gindre","Statut":"Marie ou Veuve","Prenom":"Lisette","Nom":"Lesser","Date de naissance":1779,"Nom de jeune fille":null,"Enfants":"Jacques, Jeannette, Louis, Marc","Date de naissance des enfants":"1813, 1810, 1818, 1820","Origine":"Cn Argovie","Date d arriv\u00e9e":null,"Vocation":"Sans Vocation"},{"Adresse":"Rue Cite Derriere 29","Latitude":46.5235893,"Longitude":6.6361615,"Proprietaire":"Furtaz","Statut":"Marie ou Veuve","Prenom":"Rose","Nom":"Recordon","Date de naissance":1771,"Nom de jeune fille":null,"Enfants":"Anne","Date de naissance des enfants":1806,"Origine":"Rances","Date d arriv\u00e9e":null,"Vocation":"Rentiere"},{"Adresse":"Rue Cite Derriere 23","Latitude":46.5235893,"Longitude":6.6361615,"Proprietaire":"Blanc","Statut":"Veuve","Prenom":"Non renseigne","Nom":"Corbaz","Date de naissance":1791,"Nom de jeune fille":null,"Enfants":"Jean, Gabriel","Date de naissance des enfants":"1816, 1818","Origine":"Mont","Date d arriv\u00e9e":null,"Vocation":"Journaliere"},{"Adresse":"Rue Cite Derriere 26","Latitude":46.5235893,"Longitude":6.6361615,"Proprietaire":"Wittwert","Statut":"Veuve","Prenom":"Non renseigne","Nom":"Durand","Date de naissance":1799,"Nom de jeune fille":null,"Enfants":"Louis, Henry","Date de naissance des enfants":"1817, 1819","Origine":"Vevey","Date d arriv\u00e9e":null,"Vocation":"Rentiere"},{"Adresse":"Rue Cite Derriere 24","Latitude":46.5235893,"Longitude":6.6361615,"Proprietaire":"Mange","Statut":"Non renseigne","Prenom":"Albertine","Nom":"Mange","Date de naissance":1796,"Nom de jeune fille":null,"Enfants":null,"Date de naissance des enfants":null,"Origine":"Rougemont","Date d arriv\u00e9e":null,"Vocation":"Rentiere"},{"Adresse":"Rue Cite Derriere 27","Latitude":46.5235893,"Longitude":6.6361615,"Proprietaire":"Portaz","Statut":"Non renseigne","Prenom":"Albertine","Nom":"Portaz","Date de naissance":1808,"Nom de jeune fille":null,"Enfants":"Charles, Elisa, Fran\u00e7ois, ci","Date de naissance des enfants":"1807, 1812, 1816, 1820","Origine":"Lausanne","Date d arriv\u00e9e":null,"Vocation":"Sans Vocation"},{"Adresse":"Rue Cite Derriere 25","Latitude":46.5235893,"Longitude":6.6361615,"Proprietaire":"Hoirs Pache","Statut":"Non renseigne","Prenom":"Fran\u00e7oise","Nom":"Pache","Date de naissance":1790,"Nom de jeune fille":null,"Enfants":null,"Date de naissance des enfants":null,"Origine":"Epalinges","Date d arriv\u00e9e":null,"Vocation":"Domestique"},{"Adresse":"Rue Cite Derriere 25","Latitude":46.5235893,"Longitude":6.6361615,"Proprietaire":"Hoirs Pache","Statut":"Non renseigne","Prenom":"Lisette","Nom":"Gutknecht","Date de naissance":1750,"Nom de jeune fille":null,"Enfants":null,"Date de naissance des enfants":null,"Origine":"Canton de Fribourg","Date d arriv\u00e9e":null,"Vocation":"Sans Vocation"},{"Adresse":"Rue Cite Derriere 29","Latitude":46.5235893,"Longitude":6.6361615,"Proprietaire":"Furtaz","Statut":"Non renseigne","Prenom":"Marianne","Nom":"Besan\u00e7on","Date de naissance":1759,"Nom de jeune fille":null,"Enfants":null,"Date de naissance des enfants":null,"Origine":"Moudon","Date d arriv\u00e9e":null,"Vocation":"Rentiere"},{"Adresse":"Rue Cite Derriere 38","Latitude":46.5235893,"Longitude":6.6361615,"Proprietaire":"Bugnon","Statut":"Marie ou Veuve","Prenom":"Charlotte","Nom":"Durand","Date de naissance":1770,"Nom de jeune fille":null,"Enfants":null,"Date de naissance des enfants":null,"Origine":"Lausanne","Date d arriv\u00e9e":null,"Vocation":"Rentiere"},{"Adresse":"Rue Cite Derriere 31","Latitude":46.5235893,"Longitude":6.6361615,"Proprietaire":"Cheseau","Statut":"Marie ou Veuve","Prenom":"Marie","Nom":"Rochat","Date de naissance":1761,"Nom de jeune fille":null,"Enfants":null,"Date de naissance des enfants":null,"Origine":"L'Abbaye","Date d arriv\u00e9e":null,"Vocation":"Sans Vocation"},{"Adresse":"Rue Cite Derriere 33","Latitude":46.5235893,"Longitude":6.6361615,"Proprietaire":"Tissot","Statut":"Veuve","Prenom":"Non renseigne","Nom":"Tissot","Date de naissance":1785,"Nom de jeune fille":null,"Enfants":null,"Date de naissance des enfants":null,"Origine":"Montaubion","Date d arriv\u00e9e":null,"Vocation":"Rentiere"},{"Adresse":"Rue Cite Derriere 38","Latitude":46.5235893,"Longitude":6.6361615,"Proprietaire":"Bugnon","Statut":"Veuve","Prenom":"Non renseigne","Nom":"Bugnon","Date de naissance":1747,"Nom de jeune fille":null,"Enfants":null,"Date de naissance des enfants":null,"Origine":"Lausanne","Date d arriv\u00e9e":null,"Vocation":"Rentiere"},{"Adresse":"Rue Cite Derriere 35","Latitude":46.5235893,"Longitude":6.6361615,"Proprietaire":"Curtaz","Statut":"Non renseigne","Prenom":"Isabelle","Nom":"Bergier","Date de naissance":1785,"Nom de jeune fille":null,"Enfants":null,"Date de naissance des enfants":null,"Origine":"Lausanne","Date d arriv\u00e9e":null,"Vocation":"Rentiere"},{"Adresse":"Rue Cite Derriere 30","Latitude":46.5235893,"Longitude":6.6361615,"Proprietaire":"Capt","Statut":"Non renseigne","Prenom":"Louise","Nom":"Constant","Date de naissance":1762,"Nom de jeune fille":null,"Enfants":null,"Date de naissance des enfants":null,"Origine":"Lausanne","Date d arriv\u00e9e":null,"Vocation":"Rentiere"},{"Adresse":"Rue Cite Devant 19","Latitude":46.5235827,"Longitude":6.6352993,"Proprietaire":"Corbaz","Statut":"Marie ou Veuve","Prenom":"Anyline","Nom":"Brot","Date de naissance":1754,"Nom de jeune fille":null,"Enfants":"Gonnet","Date de naissance des enfants":null,"Origine":"Lausanne","Date d arriv\u00e9e":null,"Vocation":"Fileuse"},{"Adresse":"Rue Cite Devant 16","Latitude":46.5235827,"Longitude":6.6352993,"Proprietaire":"Martin Diemer","Statut":"Marie ou Veuve","Prenom":"Jeannette","Nom":"Monairon","Date de naissance":1776,"Nom de jeune fille":null,"Enfants":null,"Date de naissance des enfants":null,"Origine":"Fechy","Date d arriv\u00e9e":null,"Vocation":"Journaliere"},{"Adresse":"Rue Cite Devant 17","Latitude":46.5235827,"Longitude":6.6352993,"Proprietaire":"Isely","Statut":"Marie ou Veuve","Prenom":"Sophie","Nom":"Genoland","Date de naissance":1777,"Nom de jeune fille":null,"Enfants":"Susette","Date de naissance des enfants":1823,"Origine":"Corbeyrier","Date d arriv\u00e9e":null,"Vocation":"Rentiere"},{"Adresse":"Rue Cite Devant 14","Latitude":46.5239833,"Longitude":6.6356948084,"Proprietaire":"Blanc","Statut":"Veuve","Prenom":"Non renseigne","Nom":"Blanc","Date de naissance":1782,"Nom de jeune fille":null,"Enfants":null,"Date de naissance des enfants":null,"Origine":"Lausanne","Date d arriv\u00e9e":null,"Vocation":"Sans vocation"},{"Adresse":"Rue Cite Devant 18","Latitude":46.5235827,"Longitude":6.6352993,"Proprietaire":"Buathard","Statut":"Non renseigne","Prenom":"Charlotte","Nom":"Barclay","Date de naissance":1790,"Nom de jeune fille":null,"Enfants":null,"Date de naissance des enfants":null,"Origine":"Angleterre","Date d arriv\u00e9e":null,"Vocation":"Rentiere"},{"Adresse":"Rue Cite Devant 18","Latitude":46.5235827,"Longitude":6.6352993,"Proprietaire":"Buathard","Statut":"Non renseigne","Prenom":"Henriette","Nom":"Barclay","Date de naissance":1792,"Nom de jeune fille":null,"Enfants":null,"Date de naissance des enfants":null,"Origine":"Angleterre","Date d arriv\u00e9e":null,"Vocation":"Rentiere"},{"Adresse":"Rue Cite Devant 23","Latitude":46.5235827,"Longitude":6.6352993,"Proprietaire":"Galliker","Statut":"Non renseigne","Prenom":"Charlotte","Nom":"Galliker","Date de naissance":1786,"Nom de jeune fille":null,"Enfants":null,"Date de naissance des enfants":null,"Origine":"Halsvil","Date d arriv\u00e9e":null,"Vocation":"Rentiere"},{"Adresse":"Rue Cite Devant 25","Latitude":46.5235827,"Longitude":6.6352993,"Proprietaire":"Mellet","Statut":"Non renseigne","Prenom":"Fanchette","Nom":"Mellet","Date de naissance":1780,"Nom de jeune fille":null,"Enfants":null,"Date de naissance des enfants":null,"Origine":"Lausanne","Date d arriv\u00e9e":null,"Vocation":"Rentiere"},{"Adresse":"Rue Cite Devant 23","Latitude":46.5235827,"Longitude":6.6352993,"Proprietaire":"Galliker","Statut":"Non renseigne","Prenom":"Henriette","Nom":"Galliker","Date de naissance":1799,"Nom de jeune fille":null,"Enfants":null,"Date de naissance des enfants":null,"Origine":"Haggenschwil","Date d arriv\u00e9e":null,"Vocation":"Rentiere"},{"Adresse":"Rue Cite Devant 28","Latitude":46.5235827,"Longitude":6.6352993,"Proprietaire":"Renaud","Statut":"Marie ou Veuve","Prenom":"Louise","Nom":"Leresche","Date de naissance":1755,"Nom de jeune fille":null,"Enfants":"Eugene","Date de naissance des enfants":1802,"Origine":"Ballaigues","Date d arriv\u00e9e":null,"Vocation":"Rentiere"},{"Adresse":"Rue Cite Devant 29","Latitude":46.5235827,"Longitude":6.6352993,"Proprietaire":"Meistre","Statut":"Marie ou Veuve","Prenom":"Marie","Nom":"Meistre","Date de naissance":1790,"Nom de jeune fille":null,"Enfants":"Samuel, Emilie, Frederic","Date de naissance des enfants":"1813, 1817, 1818","Origine":"Thierrez","Date d arriv\u00e9e":null,"Vocation":"Lingere"},{"Adresse":"Rue Cite Devant 30","Latitude":46.5235827,"Longitude":6.6352993,"Proprietaire":"Corbaz","Statut":"Non renseigne","Prenom":"Jeanne","Nom":"Jaques","Date de naissance":1786,"Nom de jeune fille":null,"Enfants":null,"Date de naissance des enfants":null,"Origine":"Sainte-Croix","Date d arriv\u00e9e":null,"Vocation":"Rentiere"},{"Adresse":"Rue Cite Devant 30","Latitude":46.5235827,"Longitude":6.6352993,"Proprietaire":"Corbaz","Statut":"Non renseigne","Prenom":"Lisette","Nom":"Descombes","Date de naissance":1774,"Nom de jeune fille":null,"Enfants":null,"Date de naissance des enfants":null,"Origine":"Lausanne","Date d arriv\u00e9e":null,"Vocation":"Rentiere"},{"Adresse":"Rue de la Barre 2","Latitude":46.5248213,"Longitude":6.6361125646,"Proprietaire":"Chapallaz","Statut":"Veuve","Prenom":"Non renseigne","Nom":"Chapalaz","Date de naissance":1754,"Nom de jeune fille":"Chanay","Enfants":"Fran\u00e7oise","Date de naissance des enfants":1795,"Origine":"Lussy","Date d arriv\u00e9e":null,"Vocation":"Couturiere"},{"Adresse":"Rue de la Barre 8","Latitude":46.5254426,"Longitude":6.6360738,"Proprietaire":"Goldenschmid","Statut":"Veuve","Prenom":"Non renseigne","Nom":"Goldenschmid","Date de naissance":1787,"Nom de jeune fille":"Henny","Enfants":"Marc, Jean Louis","Date de naissance des enfants":"1812, 1808","Origine":"Goumand","Date d arriv\u00e9e":null,"Vocation":null},{"Adresse":"Rue de la Barre 4","Latitude":46.52500535,"Longitude":6.6361051272,"Proprietaire":"Corbaz","Statut":"Non renseigne","Prenom":"Marie","Nom":"Richard","Date de naissance":1793,"Nom de jeune fille":null,"Enfants":null,"Date de naissance des enfants":null,"Origine":"Fran\u00e7aise","Date d arriv\u00e9e":null,"Vocation":null},{"Adresse":"Rue de la Barre 12","Latitude":46.5253664,"Longitude":6.6359181,"Proprietaire":"Corsat-Nicolas","Statut":"Non renseigne","Prenom":"Non renseigneette","Nom":"Dabas","Date de naissance":1780,"Nom de jeune fille":null,"Enfants":"Jeanne Francoise","Date de naissance des enfants":1811,"Origine":"Vuadens","Date d arriv\u00e9e":null,"Vocation":"Rentiere"},{"Adresse":"Rue de la Barre 14","Latitude":46.5261049,"Longitude":6.6363035718,"Proprietaire":"Pittet","Statut":"Marie ou Veuve","Prenom":"Charlotte","Nom":"Vallotton","Date de naissance":1771,"Nom de jeune fille":"Magnenat","Enfants":"Charles","Date de naissance des enfants":1804,"Origine":"Vallorbe","Date d arriv\u00e9e":null,"Vocation":"Rentiere"},{"Adresse":"Rue de la Barre 15","Latitude":46.5262149,"Longitude":6.6352998391,"Proprietaire":"Curchod","Statut":"Marie ou Veuve","Prenom":"Jeanne","Nom":"Demauron","Date de naissance":1790,"Nom de jeune fille":"Crousaz","Enfants":"Henriette, Georges, Charles","Date de naissance des enfants":"1814, 1815, 1809","Origine":"Orbe","Date d arriv\u00e9e":null,"Vocation":"Rentiere"},{"Adresse":"Rue de la Barre 44","Latitude":46.5253664,"Longitude":6.6359181,"Proprietaire":"Grillet","Statut":"Veuve","Prenom":"Non renseigne","Nom":"Dubois","Date de naissance":1786,"Nom de jeune fille":"Baud","Enfants":null,"Date de naissance des enfants":null,"Origine":"Aubonne","Date d arriv\u00e9e":null,"Vocation":"Rentiere"},{"Adresse":"Rue de la Barre 44","Latitude":46.5253664,"Longitude":6.6359181,"Proprietaire":"Grillet","Statut":"Non renseigne","Prenom":"Marie","Nom":"Meyer","Date de naissance":1787,"Nom de jeune fille":null,"Enfants":null,"Date de naissance des enfants":null,"Origine":"Fribourg","Date d arriv\u00e9e":null,"Vocation":"Lingere"},{"Adresse":"Rue de la Barre 45","Latitude":46.5253664,"Longitude":6.6359181,"Proprietaire":"Panchaud","Statut":"Non renseigne","Prenom":"Margueritte","Nom":"Faucherre","Date de naissance":1792,"Nom de jeune fille":null,"Enfants":null,"Date de naissance des enfants":null,"Origine":"Moudon","Date d arriv\u00e9e":null,"Vocation":"Lingere"},{"Adresse":"Rue de la Barre 53","Latitude":46.5253664,"Longitude":6.6359181,"Proprietaire":"Ebeslet","Statut":"Non renseigne","Prenom":"Elise","Nom":"Frederic","Date de naissance":1797,"Nom de jeune fille":null,"Enfants":null,"Date de naissance des enfants":null,"Origine":"Canton de Zurick","Date d arriv\u00e9e":null,"Vocation":"Couturiere"},{"Adresse":"Rue de la Barre 53","Latitude":46.5253664,"Longitude":6.6359181,"Proprietaire":"Ebeslet","Statut":"Veuve","Prenom":"Non renseigne","Nom":"Pirche","Date de naissance":"Non renseigne","Nom de jeune fille":null,"Enfants":null,"Date de naissance des enfants":null,"Origine":"Non renseigne","Date d arriv\u00e9e":null,"Vocation":null},{"Adresse":"Rue de la Grotte 8","Latitude":46.517761,"Longitude":6.6338801,"Proprietaire":"Gay","Statut":"Veuve","Prenom":"Lily","Nom":null,"Date de naissance":1770,"Nom de jeune fille":"Vaulvavert","Enfants":"Sabine","Date de naissance des enfants":1804,"Origine":"Canton de Saint Gall","Date d arriv\u00e9e":null,"Vocation":"Rentiere"},{"Adresse":"Rue de la Grotte 4","Latitude":46.5183291,"Longitude":6.6338087,"Proprietaire":"David","Statut":"Non renseigne","Prenom":"Fanny","Nom":"David","Date de naissance":1784,"Nom de jeune fille":null,"Enfants":null,"Date de naissance des enfants":null,"Origine":"Non renseigne","Date d arriv\u00e9e":null,"Vocation":null},{"Adresse":"Rue de la Grotte 7","Latitude":46.51760375,"Longitude":6.6345915165,"Proprietaire":"Madame Gay","Statut":"Non renseigne","Prenom":"Louise","Nom":"Gay","Date de naissance":1771,"Nom de jeune fille":null,"Enfants":null,"Date de naissance des enfants":null,"Origine":"Lutry","Date d arriv\u00e9e":1828,"Vocation":"Locataire"},{"Adresse":"Rue de la Grotte 7","Latitude":46.51760375,"Longitude":6.6345915165,"Proprietaire":"Madame Gay","Statut":"Non renseigne","Prenom":"Rose Susette","Nom":"Gay","Date de naissance":1769,"Nom de jeune fille":null,"Enfants":null,"Date de naissance des enfants":null,"Origine":"Lutry","Date d arriv\u00e9e":1828,"Vocation":"Locataire"},{"Adresse":"rue des Terreaux 1","Latitude":46.5227356,"Longitude":6.6277182,"Proprietaire":"Hugonet","Statut":"Non renseigne","Prenom":"Caroline","Nom":"Begoz","Date de naissance":1774,"Nom de jeune fille":null,"Enfants":null,"Date de naissance des enfants":null,"Origine":"Aubonne","Date d arriv\u00e9e":1819,"Vocation":null},{"Adresse":"rue des Terreaux 1","Latitude":46.5227356,"Longitude":6.6277182,"Proprietaire":"Hugonet","Statut":"Celibataire","Prenom":"Susanne","Nom":"Delisle","Date de naissance":1800,"Nom de jeune fille":null,"Enfants":null,"Date de naissance des enfants":null,"Origine":"Lausanne","Date d arriv\u00e9e":"nee","Vocation":"Secretaire"},{"Adresse":"Rue du Grand ch\u00eane 1","Latitude":46.5195823,"Longitude":6.6319104,"Proprietaire":"Perbez","Statut":"Marie ou Veuve","Prenom":"Augustine","Nom":"Oymard","Date de naissance":1802,"Nom de jeune fille":"De Beaulieu","Enfants":null,"Date de naissance des enfants":null,"Origine":"Avignon","Date d arriv\u00e9e":null,"Vocation":"Marchande"},{"Adresse":"Rue du Grand ch\u00eane 1","Latitude":46.5195823,"Longitude":6.6319104,"Proprietaire":"Perbez","Statut":"Marie ou Veuve","Prenom":"Madame","Nom":"Delerbez","Date de naissance":"Non renseigne","Nom de jeune fille":"Gleyre","Enfants":null,"Date de naissance des enfants":null,"Origine":"Berne","Date d arriv\u00e9e":null,"Vocation":null},{"Adresse":"Rue du Grand ch\u00eane 1","Latitude":46.5195823,"Longitude":6.6319104,"Proprietaire":"Perbez","Statut":"Marie ou Veuve","Prenom":"Marie","Nom":"De Beaulieu","Date de naissance":"Non renseigne","Nom de jeune fille":"Soulliard","Enfants":"Caroline","Date de naissance des enfants":1819,"Origine":"Paris","Date d arriv\u00e9e":null,"Vocation":null},{"Adresse":"Rue du Grand ch\u00eane 2","Latitude":46.5197319,"Longitude":6.6316322,"Proprietaire":"Noir","Statut":"Marie ou Veuve","Prenom":"Marie","Nom":"Amud","Date de naissance":1779,"Nom de jeune fille":"Covin","Enfants":"Louise","Date de naissance des enfants":1800,"Origine":"Prilly","Date d arriv\u00e9e":null,"Vocation":null},{"Adresse":"Rue du Grand ch\u00eane 3","Latitude":46.5198836,"Longitude":6.6298297,"Proprietaire":"Dapples","Statut":"Veuve","Prenom":"Non renseigne","Nom":"Dapples","Date de naissance":"Non renseigne","Nom de jeune fille":null,"Enfants":null,"Date de naissance des enfants":null,"Origine":"Non renseigne","Date d arriv\u00e9e":null,"Vocation":"Sage femme"},{"Adresse":"Rue du Grand ch\u00eane 4","Latitude":46.519726,"Longitude":6.631474,"Proprietaire":"Dapples","Statut":"Veuve","Prenom":"Suzette","Nom":"Dapples","Date de naissance":"Non renseigne","Nom de jeune fille":null,"Enfants":null,"Date de naissance des enfants":null,"Origine":"Non renseigne","Date d arriv\u00e9e":null,"Vocation":null},{"Adresse":"Rue du Grand ch\u00eane 6","Latitude":46.5197445,"Longitude":6.6312898,"Proprietaire":"De Loys","Statut":"Non renseigne","Prenom":"Comtesse","Nom":"De Diehiechstein","Date de naissance":"Non renseigne","Nom de jeune fille":null,"Enfants":null,"Date de naissance des enfants":null,"Origine":"Non renseigne","Date d arriv\u00e9e":null,"Vocation":null},{"Adresse":"Rue du Grand ch\u00eane 6","Latitude":46.5197445,"Longitude":6.6312898,"Proprietaire":"De Loys","Statut":"Non renseigne","Prenom":"Princesse","Nom":"De Diehiechstein","Date de naissance":"Non renseigne","Nom de jeune fille":null,"Enfants":null,"Date de naissance des enfants":null,"Origine":"Non renseigne","Date d arriv\u00e9e":null,"Vocation":null},{"Adresse":"Rue du Grand ch\u00eane 8","Latitude":46.5197763,"Longitude":6.6309727,"Proprietaire":"Wullyamoz","Statut":"Non renseigne","Prenom":"Henriette","Nom":"Wullyamoz","Date de naissance":1752,"Nom de jeune fille":null,"Enfants":null,"Date de naissance des enfants":null,"Origine":"Lausanne","Date d arriv\u00e9e":"nee","Vocation":"Rentiere"},{"Adresse":"Rue du Grand ch\u00eane 27","Latitude":46.5198836,"Longitude":6.6298297,"Proprietaire":"Noir","Statut":"Non renseigne","Prenom":"Jeanne","Nom":"Cuenoud","Date de naissance":1767,"Nom de jeune fille":null,"Enfants":null,"Date de naissance des enfants":null,"Origine":"Lausanne","Date d arriv\u00e9e":null,"Vocation":"Tailleuse"},{"Adresse":"Rue du Grand ch\u00eane 20","Latitude":46.5198836,"Longitude":6.6298297,"Proprietaire":"Braun","Statut":"Non renseigne","Prenom":"Salome Louise","Nom":"Braun","Date de naissance":"Non renseigne","Nom de jeune fille":null,"Enfants":null,"Date de naissance des enfants":null,"Origine":"Lyon","Date d arriv\u00e9e":null,"Vocation":"Rentiere"},{"Adresse":"Rue du Maupas 35","Latitude":46.5247122,"Longitude":6.6261186,"Proprietaire":"Fivaz","Statut":"Marie ou Veuve","Prenom":"Marianne","Nom":"Fivaz","Date de naissance":"Non renseigne","Nom de jeune fille":null,"Enfants":"Marie, Anne, Hellgin, Jules","Date de naissance des enfants":"1822,1824,1825,1829","Origine":"Vevy","Date d arriv\u00e9e":null,"Vocation":null},{"Adresse":"Rue du Maupas 33","Latitude":46.52516055,"Longitude":6.6250910242,"Proprietaire":"Descombes","Statut":"Veuve","Prenom":"Non renseigne","Nom":"Descombes","Date de naissance":1780,"Nom de jeune fille":null,"Enfants":"Jenny","Date de naissance des enfants":1806,"Origine":"Lausanne","Date d arriv\u00e9e":"nee","Vocation":"Rentiere"},{"Adresse":"Rue du Maupas 33","Latitude":46.52516055,"Longitude":6.6250910242,"Proprietaire":"Descombes","Statut":"Veuve","Prenom":"Non renseigne","Nom":"Ribi","Date de naissance":"Non renseigne","Nom de jeune fille":"Henpans","Enfants":null,"Date de naissance des enfants":null,"Origine":"Angleterre","Date d arriv\u00e9e":1828,"Vocation":"Rentiere"},{"Adresse":"Rue du Maupas 39","Latitude":46.5247122,"Longitude":6.6261186,"Proprietaire":"Bocion","Statut":"Celibataire","Prenom":"Non renseigne","Nom":"Aubert","Date de naissance":"Non renseigne","Nom de jeune fille":null,"Enfants":null,"Date de naissance des enfants":null,"Origine":"Sampigens","Date d arriv\u00e9e":"nee","Vocation":null},{"Adresse":"Rue du Petit Ch\u00eane 2","Latitude":46.5190978,"Longitude":6.6296175,"Proprietaire":"Moulin","Statut":"Veuve","Prenom":"Non renseigne","Nom":"Pache","Date de naissance":1758,"Nom de jeune fille":null,"Enfants":"Charlotte, Fanny","Date de naissance des enfants":1793.1823,"Origine":"Epalinges","Date d arriv\u00e9e":1802,"Vocation":"Lingere"},{"Adresse":"Rue du Petit Ch\u00eane 3","Latitude":46.5191403,"Longitude":6.6319472,"Proprietaire":"Samuel","Statut":"Non renseigne","Prenom":"Madame","Nom":"Signoud","Date de naissance":1800,"Nom de jeune fille":null,"Enfants":"Cesar","Date de naissance des enfants":1824,"Origine":"Berne","Date d arriv\u00e9e":null,"Vocation":"En pension"},{"Adresse":"Rue du Petit Ch\u00eane 5","Latitude":46.5190978,"Longitude":6.6296175,"Proprietaire":"Bouet","Statut":"Non renseigne","Prenom":"Georgette","Nom":"Jaquenoud","Date de naissance":1804,"Nom de jeune fille":null,"Enfants":null,"Date de naissance des enfants":null,"Origine":"Non renseigne","Date d arriv\u00e9e":null,"Vocation":null},{"Adresse":"Rue du Petit Ch\u00eane 4","Latitude":46.5190978,"Longitude":6.6296175,"Proprietaire":"Bergier","Statut":"Non renseigne","Prenom":"Julie","Nom":"Roch","Date de naissance":1782,"Nom de jeune fille":null,"Enfants":null,"Date de naissance des enfants":null,"Origine":"Ch\u00e2teau-dOex","Date d arriv\u00e9e":"nee","Vocation":"Infirme"},{"Adresse":"Rue du Petit Ch\u00eane 4","Latitude":46.5190978,"Longitude":6.6296175,"Proprietaire":"Bergier","Statut":"Non renseigne","Prenom":"Marie","Nom":"Jaquery","Date de naissance":"Non renseigne","Nom de jeune fille":null,"Enfants":null,"Date de naissance des enfants":null,"Origine":"Moudon","Date d arriv\u00e9e":null,"Vocation":"Repasseuse"},{"Adresse":"Rue du Petit Ch\u00eane 4","Latitude":46.5190978,"Longitude":6.6296175,"Proprietaire":"Bergier","Statut":"Non renseigne","Prenom":"Non renseigneette","Nom":"Roch","Date de naissance":1785,"Nom de jeune fille":null,"Enfants":null,"Date de naissance des enfants":null,"Origine":"Ch\u00e2teau-dOex","Date d arriv\u00e9e":"nee","Vocation":"Repasseuse"},{"Adresse":"Rue du Petit Saint-Jean 2","Latitude":46.5209144,"Longitude":6.6331277,"Proprietaire":"Peneveyre","Statut":"Veuve","Prenom":"Non renseigne","Nom":"Boubon","Date de naissance":1787,"Nom de jeune fille":null,"Enfants":"Louis, Victor","Date de naissance des enfants":"1818, 1822","Origine":"Falzbourg","Date d arriv\u00e9e":null,"Vocation":"Tailleuse"},{"Adresse":"Rue du Petit Saint-Jean 4","Latitude":46.521137,"Longitude":6.6327988,"Proprietaire":"Bippert","Statut":"Veuve","Prenom":"Non renseigne","Nom":"Monnier","Date de naissance":1778,"Nom de jeune fille":null,"Enfants":null,"Date de naissance des enfants":null,"Origine":"Yverdon","Date d arriv\u00e9e":null,"Vocation":"Tailleuse"},{"Adresse":"Rue du Petit Saint-Jean 5","Latitude":46.52120455,"Longitude":6.6328882376,"Proprietaire":"Bippert","Statut":"Veuve","Prenom":"Non renseigne","Nom":"Duret","Date de naissance":1757,"Nom de jeune fille":null,"Enfants":null,"Date de naissance des enfants":null,"Origine":"Etagniers","Date d arriv\u00e9e":null,"Vocation":"Rentiere"},{"Adresse":"Rue du Petit Saint-Jean 9","Latitude":46.5209144,"Longitude":6.6331277,"Proprietaire":"Goldner","Statut":"Veuve","Prenom":"Non renseigne","Nom":"Cupillard","Date de naissance":1770,"Nom de jeune fille":null,"Enfants":null,"Date de naissance des enfants":null,"Origine":"OrNon renseignes","Date d arriv\u00e9e":null,"Vocation":null},{"Adresse":"Rue du Petit Saint-Jean 9","Latitude":46.5209144,"Longitude":6.6331277,"Proprietaire":"Goldner","Statut":"Veuve","Prenom":"Non renseigne","Nom":"Goldner","Date de naissance":1784,"Nom de jeune fille":null,"Enfants":"David, Charles, Louis","Date de naissance des enfants":"1825, 1823, 1820","Origine":"Fontanesier","Date d arriv\u00e9e":null,"Vocation":"Potier d\u2019 Etain"},{"Adresse":"Rue du Petit Saint-Jean 5","Latitude":46.52120455,"Longitude":6.6328882376,"Proprietaire":"Bippert","Statut":"Non renseigne","Prenom":"Alexandrine","Nom":"Combe","Date de naissance":1788,"Nom de jeune fille":null,"Enfants":null,"Date de naissance des enfants":null,"Origine":"Lausanne","Date d arriv\u00e9e":null,"Vocation":"Couturiere"},{"Adresse":"Rue du Petit Saint-Jean 4","Latitude":46.521137,"Longitude":6.6327988,"Proprietaire":"Bippert","Statut":"Non renseigne","Prenom":"Femme de Gabriel","Nom":"Beboux","Date de naissance":1780,"Nom de jeune fille":null,"Enfants":null,"Date de naissance des enfants":null,"Origine":"Belmont","Date d arriv\u00e9e":null,"Vocation":"Fabriquante de peignes"},{"Adresse":"Rue du Petit Saint-Jean 2","Latitude":46.5209144,"Longitude":6.6331277,"Proprietaire":"Peneveyre","Statut":"Non renseigne","Prenom":"Gabrielle","Nom":"Peneveyre","Date de naissance":1773,"Nom de jeune fille":null,"Enfants":null,"Date de naissance des enfants":null,"Origine":"Lausanne","Date d arriv\u00e9e":null,"Vocation":"Marchande"},{"Adresse":"Rue du Petit Saint-Jean 10","Latitude":46.5209144,"Longitude":6.6331277,"Proprietaire":"Muller","Statut":"Non renseigne","Prenom":"Henriette","Nom":"Despond","Date de naissance":"Non renseigne","Nom de jeune fille":null,"Enfants":null,"Date de naissance des enfants":null,"Origine":"Cossonay","Date d arriv\u00e9e":null,"Vocation":"Marchande"},{"Adresse":"Rue du Petit Saint-Jean 8","Latitude":46.5209144,"Longitude":6.6331277,"Proprietaire":"Corbaz","Statut":"Non renseigne","Prenom":"Marguerite","Nom":"Chardon","Date de naissance":1797,"Nom de jeune fille":null,"Enfants":null,"Date de naissance des enfants":null,"Origine":"Mont.","Date d arriv\u00e9e":null,"Vocation":"Marchande"},{"Adresse":"Rue du Petit Saint-Jean 4","Latitude":46.521137,"Longitude":6.6327988,"Proprietaire":"Bippert","Statut":"Non renseigne","Prenom":"Marianne","Nom":"Guillaume","Date de naissance":1788,"Nom de jeune fille":null,"Enfants":null,"Date de naissance des enfants":null,"Origine":"Lutry","Date d arriv\u00e9e":null,"Vocation":"Blanchisseuse"},{"Adresse":"Rue du Petit Saint-Jean 8","Latitude":46.5209144,"Longitude":6.6331277,"Proprietaire":"Corbaz","Statut":"Non renseigne","Prenom":"Marie","Nom":"Fardent","Date de naissance":"Non renseigne","Nom de jeune fille":null,"Enfants":null,"Date de naissance des enfants":null,"Origine":"Ormont","Date d arriv\u00e9e":null,"Vocation":"Institutrice"},{"Adresse":"Rue du Petit Saint-Jean 10","Latitude":46.5209144,"Longitude":6.6331277,"Proprietaire":"Muller","Statut":"Veuve","Prenom":"Non renseigne","Nom":"Focas","Date de naissance":1785,"Nom de jeune fille":null,"Enfants":null,"Date de naissance des enfants":null,"Origine":"Jurser","Date d arriv\u00e9e":null,"Vocation":"Journaliere"},{"Adresse":"Rue du Petit Saint-Jean 10","Latitude":46.5209144,"Longitude":6.6331277,"Proprietaire":"Muller","Statut":"Veuve","Prenom":"Non renseigne","Nom":"Weber","Date de naissance":1778,"Nom de jeune fille":null,"Enfants":"Fran\u00e7ois","Date de naissance des enfants":1808,"Origine":"Goumens","Date d arriv\u00e9e":null,"Vocation":"Institutrice"},{"Adresse":"Rue du Petit Saint-Jean 10","Latitude":46.5209144,"Longitude":6.6331277,"Proprietaire":"Muller","Statut":"Non renseigne","Prenom":"Marguerite","Nom":"Brugger","Date de naissance":1801,"Nom de jeune fille":null,"Enfants":null,"Date de naissance des enfants":null,"Origine":"Berne","Date d arriv\u00e9e":null,"Vocation":"Tailleuse"},{"Adresse":"Rue du Petit Saint-Jean 12","Latitude":46.5209144,"Longitude":6.6331277,"Proprietaire":"Burclin et Martin","Statut":"Non renseigne","Prenom":"Non renseigneette","Nom":"Burclin","Date de naissance":1784,"Nom de jeune fille":null,"Enfants":"Jeannette, Fanchette","Date de naissance des enfants":"1805, 1810","Origine":"Lapraz","Date d arriv\u00e9e":null,"Vocation":"Journaliere"},{"Adresse":"Rue du Pont 2","Latitude":46.52156995,"Longitude":6.6330974014,"Proprietaire":"Faure","Statut":"Veuve","Prenom":"Non renseigne","Nom":"Sulzer","Date de naissance":1759,"Nom de jeune fille":null,"Enfants":null,"Date de naissance des enfants":null,"Origine":"Vintherthur","Date d arriv\u00e9e":null,"Vocation":null},{"Adresse":"Rue du Pont 5","Latitude":46.5211986,"Longitude":6.6335054,"Proprietaire":"Chugsburger","Statut":"Veuve","Prenom":"Non renseigne","Nom":"Ami","Date de naissance":1757,"Nom de jeune fille":null,"Enfants":null,"Date de naissance des enfants":null,"Origine":"Lausanne","Date d arriv\u00e9e":null,"Vocation":"Tailleuse"},{"Adresse":"Rue du Pont 7","Latitude":46.5212894,"Longitude":6.6333246,"Proprietaire":"Boulogne","Statut":"Veuve","Prenom":"Non renseigne","Nom":"Boulogne","Date de naissance":1763,"Nom de jeune fille":null,"Enfants":null,"Date de naissance des enfants":null,"Origine":"Prilly","Date d arriv\u00e9e":null,"Vocation":"Rentiere"},{"Adresse":"Rue du Pont 7","Latitude":46.5212894,"Longitude":6.6333246,"Proprietaire":"Boulogne","Statut":"Veuve","Prenom":"Non renseigne","Nom":"Jaquier","Date de naissance":1772,"Nom de jeune fille":null,"Enfants":null,"Date de naissance des enfants":null,"Origine":"Goumoens","Date d arriv\u00e9e":null,"Vocation":"Marchande"},{"Adresse":"Rue du Pont 9","Latitude":46.5212894,"Longitude":6.6333246,"Proprietaire":"Duret","Statut":"Veuve","Prenom":"Non renseigne","Nom":"Isot","Date de naissance":1794,"Nom de jeune fille":null,"Enfants":"Charlotte,Fanny","Date de naissance des enfants":1826.1825,"Origine":"Bex","Date d arriv\u00e9e":null,"Vocation":"Sage femme"},{"Adresse":"Rue du Pont 7","Latitude":46.5212894,"Longitude":6.6333246,"Proprietaire":"Boulogne","Statut":"Non renseigne","Prenom":"Fanchette","Nom":"Guex","Date de naissance":1783,"Nom de jeune fille":null,"Enfants":"Jenni","Date de naissance des enfants":1816,"Origine":"Belmont","Date d arriv\u00e9e":null,"Vocation":"Couturiere"},{"Adresse":"Rue du Pont 5","Latitude":46.5211986,"Longitude":6.6335054,"Proprietaire":"Chugsburger","Statut":"Non renseigne","Prenom":"Jeannette","Nom":"Lin","Date de naissance":1785,"Nom de jeune fille":null,"Enfants":null,"Date de naissance des enfants":null,"Origine":"Riez","Date d arriv\u00e9e":null,"Vocation":"Revendeuse"},{"Adresse":"Rue du Pont 9","Latitude":46.5212894,"Longitude":6.6333246,"Proprietaire":"Duret","Statut":"Non renseigne","Prenom":"Marie","Nom":"Barbey","Date de naissance":1763,"Nom de jeune fille":null,"Enfants":null,"Date de naissance des enfants":null,"Origine":"Chexbres","Date d arriv\u00e9e":null,"Vocation":"Tailleuse"},{"Adresse":"Rue du Pont 11","Latitude":46.5212894,"Longitude":6.6333246,"Proprietaire":"Secretan","Statut":"Veuve","Prenom":"Non renseigne","Nom":"Secretan","Date de naissance":1773,"Nom de jeune fille":null,"Enfants":null,"Date de naissance des enfants":null,"Origine":"Lausanne","Date d arriv\u00e9e":null,"Vocation":"Marchande"},{"Adresse":"Rue du Pont 15","Latitude":46.5212894,"Longitude":6.6333246,"Proprietaire":"Perrottet","Statut":"Veuve","Prenom":"Non renseigne","Nom":"Frivolet","Date de naissance":1759,"Nom de jeune fille":null,"Enfants":null,"Date de naissance des enfants":null,"Origine":"Kravitz","Date d arriv\u00e9e":null,"Vocation":"Rentiere"},{"Adresse":"Rue du Pont 16","Latitude":46.5212894,"Longitude":6.6333246,"Proprietaire":"Gex","Statut":"Veuve","Prenom":"Non renseigne","Nom":"Chapuisat","Date de naissance":1793,"Nom de jeune fille":null,"Enfants":"Fanny","Date de naissance des enfants":1822,"Origine":"Clalens","Date d arriv\u00e9e":null,"Vocation":"Lingere"},{"Adresse":"Rue du Pont 18","Latitude":46.5212894,"Longitude":6.6333246,"Proprietaire":"Rochat","Statut":"Veuve","Prenom":"Non renseigne","Nom":"Beylan","Date de naissance":1794,"Nom de jeune fille":null,"Enfants":"Taaline","Date de naissance des enfants":1806,"Origine":"Berne","Date d arriv\u00e9e":null,"Vocation":null},{"Adresse":"Rue du Pont 20","Latitude":46.5212314,"Longitude":6.6331323951,"Proprietaire":"Pferle","Statut":"Veuve","Prenom":"Non renseigne","Nom":"Illmer","Date de naissance":1803,"Nom de jeune fille":null,"Enfants":null,"Date de naissance des enfants":null,"Origine":"Renens","Date d arriv\u00e9e":null,"Vocation":"Marchande"},{"Adresse":"Rue du Pont 21","Latitude":46.5212894,"Longitude":6.6333246,"Proprietaire":"Renaud","Statut":"Non renseigne","Prenom":"Charlotte","Nom":"Inmot","Date de naissance":1784,"Nom de jeune fille":null,"Enfants":null,"Date de naissance des enfants":null,"Origine":"Avanches","Date d arriv\u00e9e":null,"Vocation":"Traiteuse"},{"Adresse":"Rue du Pont 17","Latitude":46.5212894,"Longitude":6.6333246,"Proprietaire":"Despland","Statut":"Non renseigne","Prenom":"Fanchette","Nom":"Bergue","Date de naissance":1782,"Nom de jeune fille":null,"Enfants":"Louise,Auguste, Frederique","Date de naissance des enfants":"1813,1815,1816,1810","Origine":"Bermire","Date d arriv\u00e9e":null,"Vocation":"Garde malade"},{"Adresse":"Rue du Pont 13","Latitude":46.5212894,"Longitude":6.6333246,"Proprietaire":"Renou","Statut":"Non renseigne","Prenom":"Femme de Francois","Nom":"Amstutz","Date de naissance":1782,"Nom de jeune fille":null,"Enfants":"Caroline, Marie Louise","Date de naissance des enfants":1818.182,"Origine":"Sigriswil","Date d arriv\u00e9e":null,"Vocation":"Vendeuse"},{"Adresse":"Rue du Pont 17","Latitude":46.5212894,"Longitude":6.6333246,"Proprietaire":"Despland","Statut":"Non renseigne","Prenom":"Jeannette","Nom":"Pache","Date de naissance":1755,"Nom de jeune fille":null,"Enfants":"Charles","Date de naissance des enfants":1809,"Origine":"Morges","Date d arriv\u00e9e":null,"Vocation":"Blanchisseuse"},{"Adresse":"Rue du Pont 13","Latitude":46.5212894,"Longitude":6.6333246,"Proprietaire":"Renou","Statut":"Non renseigne","Prenom":"Louise","Nom":"Bourillon","Date de naissance":1787,"Nom de jeune fille":null,"Enfants":null,"Date de naissance des enfants":null,"Origine":"Lausanne","Date d arriv\u00e9e":null,"Vocation":"Rentiere"},{"Adresse":"Rue du Pont 18","Latitude":46.5212894,"Longitude":6.6333246,"Proprietaire":"Rochat","Statut":"Non renseigne","Prenom":"Pauline","Nom":"Schoultz","Date de naissance":"Non renseigne","Nom de jeune fille":null,"Enfants":null,"Date de naissance des enfants":null,"Origine":"Chardonnay","Date d arriv\u00e9e":null,"Vocation":"Modiste"},{"Adresse":"Rue Etraz 7","Latitude":46.5193131,"Longitude":6.6390558,"Proprietaire":"Hennard","Statut":"Marie ou Veuve","Prenom":"Marie","Nom":"Perroud","Date de naissance":1776,"Nom de jeune fille":null,"Enfants":null,"Date de naissance des enfants":null,"Origine":"Non renseigne","Date d arriv\u00e9e":1784,"Vocation":"Femme de menage"},{"Adresse":"Rue Etraz 1","Latitude":46.5194183,"Longitude":6.6383569,"Proprietaire":"Cavin","Statut":"Veuve","Prenom":"Marie","Nom":"Rouviere","Date de naissance":1763,"Nom de jeune fille":null,"Enfants":null,"Date de naissance des enfants":null,"Origine":"Prilly","Date d arriv\u00e9e":null,"Vocation":"Rentiere"},{"Adresse":"Rue Etraz 6","Latitude":46.5192519,"Longitude":6.6390963,"Proprietaire":"Marguerat","Statut":"Non renseigne","Prenom":"Fanette","Nom":"Jotterand","Date de naissance":1781,"Nom de jeune fille":null,"Enfants":null,"Date de naissance des enfants":null,"Origine":"Geneve","Date d arriv\u00e9e":null,"Vocation":"Marchande"},{"Adresse":"Rue Etraz 3","Latitude":46.5194395,"Longitude":6.6386582294,"Proprietaire":"Hurter","Statut":"Non renseigne","Prenom":"Jenny","Nom":"Demoulin","Date de naissance":1804,"Nom de jeune fille":null,"Enfants":null,"Date de naissance des enfants":null,"Origine":"Lausanne","Date d arriv\u00e9e":null,"Vocation":"Lingere"},{"Adresse":"Rue Etraz 5","Latitude":46.5193456,"Longitude":6.6388573,"Proprietaire":"Devaux","Statut":"Non renseigne","Prenom":"Marianne","Nom":"Regamey","Date de naissance":1795,"Nom de jeune fille":null,"Enfants":null,"Date de naissance des enfants":null,"Origine":"Lausanne","Date d arriv\u00e9e":null,"Vocation":"Journaliere"},{"Adresse":"Rue Etraz 5","Latitude":46.5193456,"Longitude":6.6388573,"Proprietaire":"Devaux","Statut":"Non renseigne","Prenom":"Marie","Nom":"Regamey","Date de naissance":1795,"Nom de jeune fille":null,"Enfants":null,"Date de naissance des enfants":null,"Origine":"Lausanne","Date d arriv\u00e9e":null,"Vocation":"Journaliere"},{"Adresse":"Rue Etraz 12","Latitude":46.519176,"Longitude":6.6388982,"Proprietaire":"Bohy","Statut":"Veuve","Prenom":"Non renseigne","Nom":"Gonthier","Date de naissance":1777,"Nom de jeune fille":"Golay","Enfants":"Charlotte","Date de naissance des enfants":1800,"Origine":"Sainte Croix","Date d arriv\u00e9e":1790,"Vocation":"Lingere"},{"Adresse":"Rue Etraz 11","Latitude":46.5192009,"Longitude":6.6395944,"Proprietaire":"Hanz Jacob","Statut":"Veuve","Prenom":"Non renseigne","Nom":"Muller","Date de naissance":1784,"Nom de jeune fille":"Gefsenay","Enfants":"David, Abram","Date de naissance des enfants":"1820.1822","Origine":"ReitNon renseigne","Date d arriv\u00e9e":null,"Vocation":"Journaliere"},{"Adresse":"Rue Etraz 15","Latitude":46.5192519,"Longitude":6.6390963,"Proprietaire":"Paganetti","Statut":"Non renseigne","Prenom":"Jeanne Catherine","Nom":"Burel","Date de naissance":1770,"Nom de jeune fille":null,"Enfants":null,"Date de naissance des enfants":null,"Origine":"France","Date d arriv\u00e9e":null,"Vocation":"Rentiere"},{"Adresse":"Rue Etraz 12","Latitude":46.519176,"Longitude":6.6388982,"Proprietaire":"Bohy","Statut":"Non renseigne","Prenom":"rose","Nom":"Jeybel","Date de naissance":1799,"Nom de jeune fille":null,"Enfants":null,"Date de naissance des enfants":null,"Origine":"Jysy","Date d arriv\u00e9e":"nee","Vocation":"Femme de menage"},{"Adresse":"Rue Etraz 23","Latitude":46.5192519,"Longitude":6.6390963,"Proprietaire":"Langin","Statut":"Non renseigne","Prenom":"Mlle","Nom":"Mestrezat","Date de naissance":1780,"Nom de jeune fille":null,"Enfants":"Marie","Date de naissance des enfants":1814,"Origine":"Non renseigne","Date d arriv\u00e9e":null,"Vocation":null},