[{"Adresse":"Avenue d'ouchy 34","Latitude":46.51209335,"Longitude":6.6293581,"Proprietaire":"Appotheloz","Statut":"Veuve","Prenom":"nan","Nom":"Appotheloz","Date de naissance":"1764","Age":"68.0","Age_group":"61 \u00e0 70 ans","Nom de jeune fille":"Gex","Enfants":"Susette","Date de naissance des enfants":"1794","Origine":"Corcelles","Vocation":"Blanchisseuse"},{"Adresse":"Avenue d'ouchy nan","Latitude":46.5166527,"Longitude":6.6335437,"Proprietaire":"Demollin","Statut":"Veuve","Prenom":"nan","Nom":"Visinand","Date de naissance":"1771","Age":"61.0","Age_group":"61 \u00e0 70 ans","Nom de jeune fille":"Holzer","Enfants":"Fran\u00e7ois, Susette, Fanny, Samuel","Date de naissance des enfants":"1792, 1795, 1806, 1812","Origine":"Corsier","Vocation":"Vigneronne"},{"Adresse":"Avenue d'ouchy 30 bis","Latitude":46.515076,"Longitude":6.6327054,"Proprietaire":"Perrin","Statut":"Veuve","Prenom":"nan","Nom":"Fontannaz","Date de naissance":"1782","Age":"50.0","Age_group":"41 \u00e0 50 ans","Nom de jeune fille":"Falconnier","Enfants":"Louis, Charles","Date de naissance des enfants":"1809, 1816","Origine":"Daillens","Vocation":"Journaliere"},{"Adresse":"Avenue d'ouchy 39","Latitude":46.51202145,"Longitude":6.6299632679,"Proprietaire":"Perrin","Statut":"nan","Prenom":"Catherine","Nom":"Bayeler","Date de naissance":"1800","Age":"32.0","Age_group":"31 \u00e0 40 ans","Nom de jeune fille":"nan","Enfants":" ","Date de naissance des enfants":" ","Origine":"France","Vocation":"Sage femme"},{"Adresse":"Avenue d'ouchy 14","Latitude":46.5135558,"Longitude":6.6304429775,"Proprietaire":"Clerc","Statut":"nan","Prenom":"Jeanne Marie","Nom":"Pons","Date de naissance":"1784","Age":"48.0","Age_group":"41 \u00e0 50 ans","Nom de jeune fille":"nan","Enfants":"nan","Date de naissance des enfants":"nan","Origine":"France","Vocation":"Tailleuse"},{"Adresse":"Avenue d'ouchy 19","Latitude":46.5143775,"Longitude":6.6324158574,"Proprietaire":"Perrin","Statut":"Veuve","Prenom":"nan","Nom":"Mayor","Date de naissance":"1765","Age":"67.0","Age_group":"61 \u00e0 70 ans","Nom de jeune fille":"nan","Enfants":"nan","Date de naissance des enfants":"nan","Origine":"Grandcour","Vocation":"Rentiere"},{"Adresse":"Avenue d'ouchy 39","Latitude":46.51202145,"Longitude":6.6299632679,"Proprietaire":"Perrin","Statut":"Veuve","Prenom":"nan","Nom":"Neuschwander","Date de naissance":"1788","Age":"44.0","Age_group":"41 \u00e0 50 ans","Nom de jeune fille":"nan","Enfants":"Paul, Virginie, Louise","Date de naissance des enfants":"1808, 1809, 1813","Origine":"Langnau","Vocation":"Patissiere"},{"Adresse":"Avenue d'ouchy 36","Latitude":46.515076,"Longitude":6.6327054,"Proprietaire":"Perrin","Statut":"nan","Prenom":"Marianne","Nom":"Perrin","Date de naissance":"1805","Age":"27.0","Age_group":"21 \u00e0 30 ans","Nom de jeune fille":" ","Enfants":" ","Date de naissance des enfants":" ","Origine":"Lausanne","Vocation":"Blanchisseuse"},{"Adresse":"Avenue d'ouchy 30 bis","Latitude":46.515076,"Longitude":6.6327054,"Proprietaire":"Perrin","Statut":"Veuve","Prenom":"nan","Nom":"Perrin","Date de naissance":"1791","Age":"41.0","Age_group":"41 \u00e0 50 ans","Nom de jeune fille":"Dizerens","Enfants":"Jule, Jean Rodolphe, Henri, Henriette Mary","Date de naissance des enfants":"1817, 1821, 1826, 1828","Origine":"Lausanne","Vocation":"Charcutiere"},{"Adresse":"Avenue d'ouchy 40","Latitude":46.5113019,"Longitude":6.6284223975,"Proprietaire":"Dacord","Statut":"Veuve","Prenom":"nan","Nom":"Dacord","Date de naissance":"1759","Age":"73.0","Age_group":"71 \u00e0 80 ans","Nom de jeune fille":"nan","Enfants":"Olimpe, Samuel","Date de naissance des enfants":"1785, 1799","Origine":"Lausanne","Vocation":"Journaliere"},{"Adresse":"Avenue d'ouchy 15","Latitude":46.5146506,"Longitude":6.6322353,"Proprietaire":"Mogeon","Statut":"nan","Prenom":"Marianne","Nom":"Mogeon","Date de naissance":"1777","Age":"55.0","Age_group":"51 \u00e0 60 ans","Nom de jeune fille":"nan","Enfants":"nan","Date de naissance des enfants":"nan","Origine":"Lausanne","Vocation":"Journaliere"},{"Adresse":"Avenue d'ouchy 39","Latitude":46.51202145,"Longitude":6.6299632679,"Proprietaire":"Perrin","Statut":"nan","Prenom":"Louise","Nom":"Perrin","Date de naissance":"1800","Age":"32.0","Age_group":"31 \u00e0 40 ans","Nom de jeune fille":" ","Enfants":" ","Date de naissance des enfants":" ","Origine":"Lausanne","Vocation":"Journaliere"},{"Adresse":"Avenue d'ouchy 39","Latitude":46.51202145,"Longitude":6.6299632679,"Proprietaire":"Perrin","Statut":"nan","Prenom":"Marianne","Nom":"Perrin","Date de naissance":"1806","Age":"26.0","Age_group":"21 \u00e0 30 ans","Nom de jeune fille":" ","Enfants":" ","Date de naissance des enfants":" ","Origine":"Lausanne","Vocation":"Journaliere"},{"Adresse":"Avenue d'ouchy 42","Latitude":46.515076,"Longitude":6.6327054,"Proprietaire":"Dupont","Statut":"Veuve","Prenom":"nan","Nom":"Dupont","Date de naissance":"1776","Age":"56.0","Age_group":"51 \u00e0 60 ans","Nom de jeune fille":"nan","Enfants":"Louis","Date de naissance des enfants":"1799","Origine":"Lausanne","Vocation":"Proprietaire"},{"Adresse":"Avenue d'ouchy 16","Latitude":46.51325665,"Longitude":6.6302822807,"Proprietaire":"Perrin","Statut":"Veuve","Prenom":"nan","Nom":"Perrin","Date de naissance":"1785","Age":"47.0","Age_group":"41 \u00e0 50 ans","Nom de jeune fille":"Zimmerman","Enfants":"nan","Date de naissance des enfants":"nan","Origine":"Lausanne","Vocation":"Proprietaire"},{"Adresse":"Avenue d'ouchy 14","Latitude":46.5135558,"Longitude":6.6304429775,"Proprietaire":"Clerc","Statut":"Marie ou Veuve","Prenom":"Femme de jean","Nom":"Morax","Date de naissance":"1774","Age":"58.0","Age_group":"51 \u00e0 60 ans","Nom de jeune fille":"Pons","Enfants":"nan","Date de naissance des enfants":"nan","Origine":"Mex","Vocation":"Tailleuse"},{"Adresse":"Avenue d'ouchy 38","Latitude":46.5118486,"Longitude":6.6291918634,"Proprietaire":"Clerc","Statut":"nan","Prenom":"Marianne","Nom":"Devenoge","Date de naissance":"1785","Age":"47.0","Age_group":"41 \u00e0 50 ans","Nom de jeune fille":" ","Enfants":"Leon","Date de naissance des enfants":"1823","Origine":"Morges","Vocation":"Rentiere"},{"Adresse":"Avenue d'ouchy 30","Latitude":46.51221695,"Longitude":6.6294818533,"Proprietaire":"Clerc","Statut":"Veuve","Prenom":"nan","Nom":"Perey","Date de naissance":"1770","Age":"62.0","Age_group":"61 \u00e0 70 ans","Nom de jeune fille":"Fontaine","Enfants":"Jacques, Frederic, Marc","Date de naissance des enfants":"1800, 1810, 1817","Origine":"Orsens","Vocation":"Journaliere"},{"Adresse":"Avenue d'ouchy 15","Latitude":46.5146506,"Longitude":6.6322353,"Proprietaire":"Mogeon","Statut":"Veuve","Prenom":"nan","Nom":"Verboux","Date de naissance":"1777","Age":"55.0","Age_group":"51 \u00e0 60 ans","Nom de jeune fille":"Mogeon","Enfants":"nan","Date de naissance des enfants":"nan","Origine":"Paudex","Vocation":"Journaliere"},{"Adresse":"Avenue d'ouchy 24","Latitude":46.515076,"Longitude":6.6327054,"Proprietaire":"Commune","Statut":"Veuve","Prenom":"nan","Nom":"Recordon","Date de naissance":"1768","Age":"64.0","Age_group":"61 \u00e0 70 ans","Nom de jeune fille":"Vincent","Enfants":"Rosine","Date de naissance des enfants":"1804","Origine":"Rances","Vocation":"Rentiere"},{"Adresse":"Avenue d'ouchy 18","Latitude":46.51314865,"Longitude":6.6301236143,"Proprietaire":"Corbaz","Statut":"Veuve","Prenom":"nan","Nom":"Corbaz","Date de naissance":"1793","Age":"39.0","Age_group":"31 \u00e0 40 ans","Nom de jeune fille":"Uldry","Enfants":"Susanne, Augustine, Julie","Date de naissance des enfants":"1826, 1827, 1828","Origine":"Renens","Vocation":"Aubergiste"},{"Adresse":"Avenue de Chailly nan","Latitude":46.5244364,"Longitude":6.653525,"Proprietaire":"Blanc","Statut":"Veuve","Prenom":"nan","Nom":"Blanc","Date de naissance":"1765","Age":"67.0","Age_group":"61 \u00e0 70 ans","Nom de jeune fille":"nan","Enfants":"Abram,Louise","Date de naissance des enfants":"1789,1787","Origine":"Lausanne","Vocation":"Fermiere"},{"Adresse":"Avenue de Chailly nan","Latitude":46.5244364,"Longitude":6.653525,"Proprietaire":"Emery","Statut":"nan","Prenom":"Fauchette","Nom":"Blanc","Date de naissance":"1780","Age":"52.0","Age_group":"51 \u00e0 60 ans","Nom de jeune fille":"nan","Enfants":"nan","Date de naissance des enfants":"nan","Origine":"Lausanne","Vocation":"Journaliere"},{"Adresse":"Avenue de Chailly nan","Latitude":46.5244364,"Longitude":6.653525,"Proprietaire":"Chare","Statut":"nan","Prenom":"Fauchette","Nom":"Collin","Date de naissance":"1773","Age":"59.0","Age_group":"51 \u00e0 60 ans","Nom de jeune fille":"nan","Enfants":"nan","Date de naissance des enfants":"nan","Origine":"Lausanne","Vocation":"Rentiere"},{"Adresse":"Avenue de Cour   ","Latitude":46.5166375,"Longitude":6.6115278,"Proprietaire":"Regamey","Statut":"Veuve","Prenom":"nan","Nom":"Regamey","Date de naissance":"1775","Age":"57.0","Age_group":"51 \u00e0 60 ans","Nom de jeune fille":"nan","Enfants":"Charles, Jean","Date de naissance des enfants":"1800, 1811","Origine":" ","Vocation":"Proprietaire"},{"Adresse":"Avenue de Cour nan","Latitude":46.5166375,"Longitude":6.6115278,"Proprietaire":"Tavernay","Statut":"nan","Prenom":"Marie","Nom":"Dumaine","Date de naissance":"1770","Age":"62.0","Age_group":"61 \u00e0 70 ans","Nom de jeune fille":"nan","Enfants":"nan","Date de naissance des enfants":"nan","Origine":"Lausanne","Vocation":"Rentiere"},{"Adresse":"Avenue de Cour nan","Latitude":46.5166375,"Longitude":6.6115278,"Proprietaire":"Combernous","Statut":"nan","Prenom":"Jeanne","Nom":"Mermillod","Date de naissance":"1770","Age":"62.0","Age_group":"61 \u00e0 70 ans","Nom de jeune fille":"nan","Enfants":"nan","Date de naissance des enfants":"nan","Origine":"Oron la ville","Vocation":"Rentiere"},{"Adresse":"Avenue de Cour  ","Latitude":46.5166375,"Longitude":6.6115278,"Proprietaire":"Leresche","Statut":"nan","Prenom":"Jeanne","Nom":"Camel","Date de naissance":"1800","Age":"32.0","Age_group":"31 \u00e0 40 ans","Nom de jeune fille":" ","Enfants":"Jeanne-Louise","Date de naissance des enfants":" ","Origine":"Villars Sainte Croix","Vocation":"Journaliere"},{"Adresse":"Avenue de Cour  ","Latitude":46.5166375,"Longitude":6.6115278,"Proprietaire":"Perret","Statut":"Veuve","Prenom":"nan","Nom":"Perret","Date de naissance":"1770","Age":"62.0","Age_group":"61 \u00e0 70 ans","Nom de jeune fille":"nan","Enfants":"Anne-Louise, Jenny, David, Isaac-Benjamin","Date de naissance des enfants":"1805, 1812, 1809, 1808","Origine":"Villars-Tiercelin","Vocation":"Proprietaire"},{"Adresse":"Avenue de Cour  ","Latitude":46.5166375,"Longitude":6.6115278,"Proprietaire":"Meylan","Statut":"Veuve","Prenom":"nan","Nom":"Perisot","Date de naissance":"1762","Age":"70.0","Age_group":"61 \u00e0 70 ans","Nom de jeune fille":"nan","Enfants":" ","Date de naissance des enfants":" ","Origine":"Villette","Vocation":"Rentiere"},{"Adresse":"Avenue de la Chabliere  ","Latitude":46.5317745,"Longitude":6.6142776,"Proprietaire":"Guiguer","Statut":"Veuve","Prenom":"nan","Nom":"Rouff","Date de naissance":"1772","Age":"60.0","Age_group":"51 \u00e0 60 ans","Nom de jeune fille":"nan","Enfants":"Jean, Emmanuel, Marc","Date de naissance des enfants":"1791, 1804, 1809","Origine":"Prilly","Vocation":"Fermiere"},{"Adresse":"Avenue de Montbenon 11","Latitude":46.5198315,"Longitude":6.6283806,"Proprietaire":"Viollet","Statut":"nan","Prenom":"Madame","Nom":"Chaw","Date de naissance":"nan","Age":"nan","Age_group":"nan","Nom de jeune fille":"nan","Enfants":"nan","Date de naissance des enfants":"nan","Origine":"Angleterre","Vocation":"nan"},{"Adresse":"Avenue de Montchoisi nan","Latitude":46.510722,"Longitude":6.6381548,"Proprietaire":"Corjeat","Statut":"nan","Prenom":"Elisabeth","Nom":"Corjeat","Date de naissance":"1765","Age":"67.0","Age_group":"61 \u00e0 70 ans","Nom de jeune fille":"nan","Enfants":"nan","Date de naissance des enfants":"nan","Origine":"Lausanne","Vocation":"Proprietaire"},{"Adresse":"Avenue du Servan nan","Latitude":46.5123283,"Longitude":6.6317161,"Proprietaire":"Constant","Statut":"nan","Prenom":"Caroline","Nom":"Forbes","Date de naissance":"nan","Age":"nan","Age_group":"nan","Nom de jeune fille":"nan","Enfants":"nan","Date de naissance des enfants":"nan","Origine":"Angleterre","Vocation":"Rentiere"},{"Adresse":"Avenue du Servan nan","Latitude":46.5123283,"Longitude":6.6317161,"Proprietaire":"Constant","Statut":"nan","Prenom":"Charlotte","Nom":"Forbes","Date de naissance":"nan","Age":"nan","Age_group":"nan","Nom de jeune fille":"nan","Enfants":"nan","Date de naissance des enfants":"nan","Origine":"Angleterre","Vocation":"Rentiere"},{"Adresse":"Avenue du Servan nan","Latitude":46.5123283,"Longitude":6.6317161,"Proprietaire":"Constant","Statut":"nan","Prenom":"Johanna","Nom":"Forbes","Date de naissance":"nan","Age":"nan","Age_group":"nan","Nom de jeune fille":"nan","Enfants":"nan","Date de naissance des enfants":"nan","Origine":"Angleterre","Vocation":"Rentiere"},{"Adresse":"Avenue du Servan nan","Latitude":46.5123283,"Longitude":6.6317161,"Proprietaire":"Constant","Statut":"nan","Prenom":"Marguerite","Nom":"Forbes","Date de naissance":"nan","Age":"nan","Age_group":"nan","Nom de jeune fille":"nan","Enfants":"nan","Date de naissance des enfants":"nan","Origine":"Angleterre","Vocation":"Rentiere"},{"Adresse":"Chemin du Bois gentil nan","Latitude":46.5386117,"Longitude":6.6273936,"Proprietaire":"Chevalley","Statut":"nan","Prenom":"Susanne Marguerite","Nom":"Grenier","Date de naissance":"1752","Age":"80.0","Age_group":"71 \u00e0 80 ans","Nom de jeune fille":"nan","Enfants":"Augustin","Date de naissance des enfants":"1800","Origine":"L'Abbaye","Vocation":"Faiseuse de dentelle"},{"Adresse":"Chemin du Bois gentil nan","Latitude":46.5386117,"Longitude":6.6273936,"Proprietaire":"Regamey","Statut":"Veuve","Prenom":"nan","Nom":"Regamey","Date de naissance":"nan","Age":"nan","Age_group":"nan","Nom de jeune fille":"nan","Enfants":"Fran\u00e7ois Louis, Jeanne Louise","Date de naissance des enfants":"1790, 1797","Origine":"Lausanne","Vocation":"Proprietaire"},{"Adresse":"Chemin du Calvaire nan","Latitude":46.52555,"Longitude":6.638675,"Proprietaire":"Ceres","Statut":"nan","Prenom":"Julie","Nom":"Regamay","Date de naissance":"1786","Age":"46.0","Age_group":"41 \u00e0 50 ans","Nom de jeune fille":"nan","Enfants":"nan","Date de naissance des enfants":"nan","Origine":"Lausanne","Vocation":"Locataire"},{"Adresse":"Chemin du Calvaire  ","Latitude":46.52555,"Longitude":6.638675,"Proprietaire":"Ruchonnet","Statut":"nan","Prenom":"Jeanne","Nom":"Ruchonnet","Date de naissance":"1760","Age":"72.0","Age_group":"71 \u00e0 80 ans","Nom de jeune fille":"nan","Enfants":" ","Date de naissance des enfants":" ","Origine":"St Saphorin","Vocation":"Rentiere"},{"Adresse":"Passage des Saugettes nan","Latitude":46.515894,"Longitude":6.6313857,"Proprietaire":"Devant","Statut":"Veuve","Prenom":"nan","Nom":"Devant","Date de naissance":"1768","Age":"64.0","Age_group":"61 \u00e0 70 ans","Nom de jeune fille":"Guex","Enfants":"Louise, Louis, Adrianne","Date de naissance des enfants":"1800, 1802, 1809","Origine":"Lausanne","Vocation":"Proprietaire"},{"Adresse":"Place Chauderon 33","Latitude":46.5233851,"Longitude":6.6262489,"Proprietaire":"Roy","Statut":"Marie ou Veuve","Prenom":"Louise","Nom":"Hoffman","Date de naissance":"1764","Age":"68.0","Age_group":"61 \u00e0 70 ans","Nom de jeune fille":"nan","Enfants":"nan","Date de naissance des enfants":"nan","Origine":"Chavannes","Vocation":"nan"},{"Adresse":"Place Chauderon 6","Latitude":46.5233851,"Longitude":6.6262489,"Proprietaire":"Rivier","Statut":"Veuve","Prenom":"nan","Nom":"Rost","Date de naissance":"1778","Age":"54.0","Age_group":"51 \u00e0 60 ans","Nom de jeune fille":"nan","Enfants":"Henri","Date de naissance des enfants":"1808","Origine":"Echichens","Vocation":"Confiseuse"},{"Adresse":"Place Chauderon 32","Latitude":46.52390405,"Longitude":6.6237566311,"Proprietaire":"Pache","Statut":"Celibataire","Prenom":"Charlotte","Nom":"Pache","Date de naissance":"1783","Age":"49.0","Age_group":"41 \u00e0 50 ans","Nom de jeune fille":"nan","Enfants":"nan","Date de naissance des enfants":"nan","Origine":"Epalinges","Vocation":"Journaliere"},{"Adresse":"Place de la Palud 14","Latitude":46.522284,"Longitude":6.6324134,"Proprietaire":"Demollins","Statut":"Veuve","Prenom":"nan","Nom":"Chapuisat","Date de naissance":"1755","Age":"77.0","Age_group":"71 \u00e0 80 ans","Nom de jeune fille":"Cheriz","Enfants":"nan","Date de naissance des enfants":"nan","Origine":"Aclens","Vocation":"Marchande"},{"Adresse":"Place de la Palud 21","Latitude":46.522039,"Longitude":6.6333394742,"Proprietaire":"Boulan","Statut":"nan","Prenom":"Jeanne Elize","Nom":"Mouty","Date de naissance":"1802","Age":"30.0","Age_group":"21 \u00e0 30 ans","Nom de jeune fille":"nan","Enfants":"nan","Date de naissance des enfants":"nan","Origine":"Aubonne","Vocation":"Marchande"},{"Adresse":"Place de la Palud 11","Latitude":46.52223035,"Longitude":6.6322092771,"Proprietaire":"Mieville","Statut":"nan","Prenom":"Alexandrine","Nom":"Bornerod","Date de naissance":"1800","Age":"32.0","Age_group":"31 \u00e0 40 ans","Nom de jeune fille":"nan","Enfants":"nan","Date de naissance des enfants":"nan","Origine":"Avenohz","Vocation":"Institutrice"},{"Adresse":"Place de la Palud 7","Latitude":46.5219966,"Longitude":6.6324037,"Proprietaire":"Lecomte","Statut":"Veuve","Prenom":"nan","Nom":"Mayor","Date de naissance":"1772","Age":"60.0","Age_group":"51 \u00e0 60 ans","Nom de jeune fille":"Taillent","Enfants":"nan","Date de naissance des enfants":"nan","Origine":"Ballens","Vocation":"Rentiere"},{"Adresse":"Place de la Palud 12","Latitude":46.5219156,"Longitude":6.6329760129,"Proprietaire":"Vulliemoz","Statut":"Veuve","Prenom":"nan","Nom":"Barbez","Date de naissance":"1773","Age":"59.0","Age_group":"51 \u00e0 60 ans","Nom de jeune fille":"Crud","Enfants":"nan","Date de naissance des enfants":"nan","Origine":"Cherbu","Vocation":"Rentiere"},{"Adresse":"Place de la Palud 13","Latitude":46.5224666,"Longitude":6.632297242,"Proprietaire":"LeBlanc","Statut":"nan","Prenom":"Henriette","Nom":"Chapuis","Date de naissance":"1792","Age":"40.0","Age_group":"31 \u00e0 40 ans","Nom de jeune fille":"nan","Enfants":"nan","Date de naissance des enfants":"nan","Origine":"Chexbre","Vocation":"Rentiere"},{"Adresse":"Place de la Palud 24","Latitude":46.5219156,"Longitude":6.6329760129,"Proprietaire":"Hollard","Statut":"nan","Prenom":"Louise","Nom":"Haldy","Date de naissance":"1808","Age":"24.0","Age_group":"21 \u00e0 30 ans","Nom de jeune fille":"nan","Enfants":"nan","Date de naissance des enfants":"nan","Origine":"Gefsenay","Vocation":"nan"},{"Adresse":"Place de la Palud 17","Latitude":46.52222375,"Longitude":6.6326813489,"Proprietaire":"LeBlanc","Statut":"nan","Prenom":"Benjamine","Nom":"Schmidt","Date de naissance":"1778","Age":"54.0","Age_group":"51 \u00e0 60 ans","Nom de jeune fille":"nan","Enfants":"nan","Date de naissance des enfants":"nan","Origine":"Jouxtens","Vocation":"Rentiere"},{"Adresse":"Place de la Palud 12","Latitude":46.5219156,"Longitude":6.6329760129,"Proprietaire":"Vulliemoz","Statut":"nan","Prenom":"Jeannette","Nom":"Chapuis","Date de naissance":"1796","Age":"36.0","Age_group":"31 \u00e0 40 ans","Nom de jeune fille":"nan","Enfants":"nan","Date de naissance des enfants":"nan","Origine":"Lausanne","Vocation":"Marchande"},{"Adresse":"Place de la Palud 10","Latitude":46.5220835,"Longitude":6.6322326,"Proprietaire":"Pidou","Statut":"Veuve","Prenom":"nan","Nom":"Pidou","Date de naissance":"1775","Age":"57.0","Age_group":"51 \u00e0 60 ans","Nom de jeune fille":"Aubert","Enfants":"nan","Date de naissance des enfants":"nan","Origine":"Lausanne","Vocation":"Rentiere"},{"Adresse":"Place de la Palud 12","Latitude":46.5219156,"Longitude":6.6329760129,"Proprietaire":"Vulliemoz","Statut":"nan","Prenom":"Demoiselle","Nom":"Crud","Date de naissance":"1780","Age":"52.0","Age_group":"51 \u00e0 60 ans","Nom de jeune fille":"nan","Enfants":"nan","Date de naissance des enfants":"nan","Origine":"Lausanne","Vocation":"Rentiere"},{"Adresse":"Place de la Palud 18","Latitude":46.52222375,"Longitude":6.6326813489,"Proprietaire":"Porchat","Statut":"Veuve","Prenom":"nan","Nom":"Josef","Date de naissance":"1784","Age":"48.0","Age_group":"41 \u00e0 50 ans","Nom de jeune fille":"Bocion","Enfants":"Rosine, Paul Emile","Date de naissance des enfants":"1816, 1820","Origine":"Lausanne","Vocation":"Rentiere"},{"Adresse":"Place de la Palud 13","Latitude":46.5224666,"Longitude":6.632297242,"Proprietaire":"LeBlanc","Statut":"nan","Prenom":"Elize","Nom":"Bourillon","Date de naissance":"1792","Age":"40.0","Age_group":"31 \u00e0 40 ans","Nom de jeune fille":"nan","Enfants":"nan","Date de naissance des enfants":"nan","Origine":"Lausanne","Vocation":"Rentiere"},{"Adresse":"Place de la Palud 7","Latitude":46.5219966,"Longitude":6.6324037,"Proprietaire":"Lecomte","Statut":"nan","Prenom":"Rosine","Nom":"Heffti","Date de naissance":"1813","Age":"19.0","Age_group":"20 ans et moins","Nom de jeune fille":"nan","Enfants":"nan","Date de naissance des enfants":"nan","Origine":"Luchsingen","Vocation":"Negociante"},{"Adresse":"Place de la Palud 13","Latitude":46.5224666,"Longitude":6.632297242,"Proprietaire":"LeBlanc","Statut":"nan","Prenom":"Marie","Nom":"Delefsert","Date de naissance":"1762","Age":"70.0","Age_group":"61 \u00e0 70 ans","Nom de jeune fille":"nan","Enfants":"nan","Date de naissance des enfants":"nan","Origine":"Lutry","Vocation":"Marchande"},{"Adresse":"Place de la Palud 21","Latitude":46.522039,"Longitude":6.6333394742,"Proprietaire":"Doulan","Statut":"nan","Prenom":"Susanne","Nom":"Delessert","Date de naissance":"nan","Age":"nan","Age_group":"nan","Nom de jeune fille":"nan","Enfants":"nan","Date de naissance des enfants":"nan","Origine":"Lutry","Vocation":"nan"},{"Adresse":"Place de la Palud 11","Latitude":46.52223035,"Longitude":6.6322092771,"Proprietaire":"Mieville","Statut":"nan","Prenom":"Jeannette","Nom":"Blondel","Date de naissance":"1794","Age":"38.0","Age_group":"31 \u00e0 40 ans","Nom de jeune fille":"nan","Enfants":"nan","Date de naissance des enfants":"nan","Origine":"Mont le Grand","Vocation":"Marchande"},{"Adresse":"Place de la Palud 12","Latitude":46.5219156,"Longitude":6.6329760129,"Proprietaire":"Vulliemoz","Statut":"nan","Prenom":"Catherine","Nom":"Faifs","Date de naissance":"1779","Age":"53.0","Age_group":"51 \u00e0 60 ans","Nom de jeune fille":"nan","Enfants":"nan","Date de naissance des enfants":"nan","Origine":"Nyon","Vocation":"Rentiere"},{"Adresse":"Place de la Palud 16","Latitude":46.5222698,"Longitude":6.6325655878,"Proprietaire":"Pascal","Statut":"nan","Prenom":"Isabelle","Nom":"Gouillot","Date de naissance":"1808","Age":"24.0","Age_group":"21 \u00e0 30 ans","Nom de jeune fille":"nan","Enfants":"nan","Date de naissance des enfants":"nan","Origine":"Ormont","Vocation":"Couturiere"},{"Adresse":"Place de la Palud 16","Latitude":46.5222698,"Longitude":6.6325655878,"Proprietaire":"Pascal","Statut":"nan","Prenom":"Louise","Nom":"Gouillot","Date de naissance":"1813","Age":"19.0","Age_group":"20 ans et moins","Nom de jeune fille":"nan","Enfants":"nan","Date de naissance des enfants":"nan","Origine":"Ormont","Vocation":"Couturiere"},{"Adresse":"Place de la Palud 15","Latitude":46.5219156,"Longitude":6.6329760129,"Proprietaire":"Schell","Statut":"Veuve","Prenom":"nan","Nom":"Schell","Date de naissance":"1766","Age":"66.0","Age_group":"61 \u00e0 70 ans","Nom de jeune fille":"Saucon","Enfants":"nan","Date de naissance des enfants":"nan","Origine":"Prilly","Vocation":"nan"},{"Adresse":"Place de la Palud 11","Latitude":46.52223035,"Longitude":6.6322092771,"Proprietaire":"Mieville","Statut":"nan","Prenom":"Jenny","Nom":"Schwartz","Date de naissance":"1789","Age":"43.0","Age_group":"41 \u00e0 50 ans","Nom de jeune fille":"nan","Enfants":"nan","Date de naissance des enfants":"nan","Origine":"Rolle","Vocation":"Lingere"},{"Adresse":"Place de la Palud 8","Latitude":46.5220467,"Longitude":6.632298149,"Proprietaire":"Coeytaux","Statut":"Celibataire","Prenom":"Angelique","Nom":"Reyment","Date de naissance":"1793","Age":"39.0","Age_group":"31 \u00e0 40 ans","Nom de jeune fille":"nan","Enfants":"nan","Date de naissance des enfants":"nan","Origine":"Vallee","Vocation":"nan"},{"Adresse":"Place de la Palud 8","Latitude":46.5220467,"Longitude":6.632298149,"Proprietaire":"Coeytaux","Statut":"Celibataire","Prenom":"Jenny","Nom":"Guignard","Date de naissance":"1809","Age":"23.0","Age_group":"21 \u00e0 30 ans","Nom de jeune fille":"nan","Enfants":"nan","Date de naissance des enfants":"nan","Origine":"Vallee","Vocation":"nan"},{"Adresse":"Place de la Palud 13","Latitude":46.5224666,"Longitude":6.632297242,"Proprietaire":"LeBlanc","Statut":"nan","Prenom":"Armande","Nom":"Morin","Date de naissance":"1787","Age":"45.0","Age_group":"41 \u00e0 50 ans","Nom de jeune fille":"nan","Enfants":"nan","Date de naissance des enfants":"nan","Origine":"Vich","Vocation":"Rentiere"},{"Adresse":"Place de la Palud 13","Latitude":46.5224666,"Longitude":6.632297242,"Proprietaire":"LeBlanc","Statut":"nan","Prenom":"Jenny","Nom":"Morin","Date de naissance":"1788","Age":"44.0","Age_group":"41 \u00e0 50 ans","Nom de jeune fille":"nan","Enfants":"nan","Date de naissance des enfants":"nan","Origine":"Vich","Vocation":"Rentiere"},{"Adresse":"Place de la Palud 16","Latitude":46.5222698,"Longitude":6.6325655878,"Proprietaire":"Pascal","Statut":"nan","Prenom":"Marguerite","Nom":"Ecoffey","Date de naissance":"1741","Age":"91.0","Age_group":"91 ans et plus","Nom de jeune fille":"nan","Enfants":"nan","Date de naissance des enfants":"nan","Origine":"Vulliens","Vocation":"Institutrice"},{"Adresse":"Place de la Palud 8","Latitude":46.5220467,"Longitude":6.632298149,"Proprietaire":"Coeytaux","Statut":"Veuve","Prenom":"nan","Nom":"Decurner","Date de naissance":"1762","Age":"70.0","Age_group":"61 \u00e0 70 ans","Nom de jeune fille":"Bron","Enfants":"nan","Date de naissance des enfants":"nan","Origine":"Vulliens","Vocation":"Rentiere"},{"Adresse":"Place de la Palud 24","Latitude":46.5219156,"Longitude":6.6329760129,"Proprietaire":"Hollard","Statut":"nan","Prenom":"Jeanne","Nom":"Ogiz","Date de naissance":"nan","Age":"nan","Age_group":"nan","Nom de jeune fille":"nan","Enfants":"nan","Date de naissance des enfants":"nan","Origine":"nan","Vocation":"nan"},{"Adresse":"Place Saint-Fran\u00e7ois 13","Latitude":46.5195996,"Longitude":6.6329732624,"Proprietaire":"Nicole","Statut":"Veuve","Prenom":"nan","Nom":"Haubing","Date de naissance":"1756","Age":"76.0","Age_group":"71 \u00e0 80 ans","Nom de jeune fille":"nan","Enfants":"Etiennette","Date de naissance des enfants":"1794","Origine":"Geneve","Vocation":"Rentiere"},{"Adresse":"Place Saint-Fran\u00e7ois 8","Latitude":46.52016145,"Longitude":6.6336137572,"Proprietaire":"Mafeson","Statut":"Marie ou Veuve","Prenom":"Anne","Nom":"Beaumet","Date de naissance":"1746","Age":"86.0","Age_group":"81 \u00e0 90 ans","Nom de jeune fille":" Duvilas","Enfants":"nan","Date de naissance des enfants":"nan","Origine":"Himes","Vocation":"Rentiere"},{"Adresse":"Place Saint-Fran\u00e7ois 9","Latitude":46.5200967,"Longitude":6.6337897,"Proprietaire":"Perregaux","Statut":"Marie ou Veuve","Prenom":"Alexandrine","Nom":"veibel","Date de naissance":"1775","Age":"57.0","Age_group":"51 \u00e0 60 ans","Nom de jeune fille":" Perregaux","Enfants":"nan","Date de naissance des enfants":"nan","Origine":"Lausanne","Vocation":"Locataire"},{"Adresse":"Place Saint-Fran\u00e7ois 18","Latitude":46.519677,"Longitude":6.6330201,"Proprietaire":"Lugeon","Statut":"nan","Prenom":"Jeanne","Nom":"Oboussier","Date de naissance":"1758","Age":"74.0","Age_group":"71 \u00e0 80 ans","Nom de jeune fille":"nan","Enfants":"nan","Date de naissance des enfants":"nan","Origine":"Lausanne","Vocation":"Rentiere"},{"Adresse":"Place Saint-Fran\u00e7ois 15","Latitude":46.5192609,"Longitude":6.6328546,"Proprietaire":"Bergier","Statut":"nan","Prenom":"Henriette","Nom":"de senarland","Date de naissance":"1760","Age":"72.0","Age_group":"71 \u00e0 80 ans","Nom de jeune fille":"nan","Enfants":"nan","Date de naissance des enfants":"nan","Origine":"Lausanne","Vocation":"Rentiere"},{"Adresse":"Place Saint-Fran\u00e7ois 18","Latitude":46.519677,"Longitude":6.6330201,"Proprietaire":"Lugeon","Statut":"nan","Prenom":"Marie","Nom":"Oboussier","Date de naissance":"1770","Age":"62.0","Age_group":"61 \u00e0 70 ans","Nom de jeune fille":"nan","Enfants":"nan","Date de naissance des enfants":"nan","Origine":"Lausanne","Vocation":"Rentiere"},{"Adresse":"Place Saint-Fran\u00e7ois 18","Latitude":46.519677,"Longitude":6.6330201,"Proprietaire":"Lugeon","Statut":"nan","Prenom":"Louise","Nom":"Oboussier","Date de naissance":"1774","Age":"58.0","Age_group":"51 \u00e0 60 ans","Nom de jeune fille":"nan","Enfants":"nan","Date de naissance des enfants":"nan","Origine":"Lausanne","Vocation":"Rentiere"},{"Adresse":"Place Saint-Fran\u00e7ois 8","Latitude":46.52016145,"Longitude":6.6336137572,"Proprietaire":"Mafeson","Statut":"Marie ou Veuve","Prenom":"Catherine","Nom":"Andre","Date de naissance":"1790","Age":"42.0","Age_group":"41 \u00e0 50 ans","Nom de jeune fille":" Meyrat","Enfants":"Aline, Rosine, Auguste, Emile","Date de naissance des enfants":"1815, 1817, 1819, 1821","Origine":"France","Vocation":"nan"},{"Adresse":"Place Saint-Fran\u00e7ois 12","Latitude":46.5195456,"Longitude":6.6343695493,"Proprietaire":"Ferber","Statut":"Marie ou Veuve","Prenom":"Julie","Nom":"Dony","Date de naissance":"1770","Age":"62.0","Age_group":"61 \u00e0 70 ans","Nom de jeune fille":" Bruel","Enfants":"Caroline","Date de naissance des enfants":"1796","Origine":"Prilly","Vocation":"Lingere"},{"Adresse":"Place Saint-Fran\u00e7ois 14","Latitude":46.51909125,"Longitude":6.6342884652,"Proprietaire":"Vernaud","Statut":"nan","Prenom":"Frederique","Nom":"Geitz","Date de naissance":"1784","Age":"48.0","Age_group":"41 \u00e0 50 ans","Nom de jeune fille":"nan","Enfants":"nan","Date de naissance des enfants":"nan","Origine":"Vevey","Vocation":"Marchande"},{"Adresse":"Place Saint-Fran\u00e7ois 8","Latitude":46.52016145,"Longitude":6.6336137572,"Proprietaire":"Mafeson","Statut":"Veuve","Prenom":"nan","Nom":"Dubochet","Date de naissance":"1794","Age":"38.0","Age_group":"31 \u00e0 40 ans","Nom de jeune fille":" Villard","Enfants":"nan","Date de naissance des enfants":"nan","Origine":"Vevey","Vocation":"nan"},{"Adresse":"Place Saint-Fran\u00e7ois 13","Latitude":46.5195996,"Longitude":6.6329732624,"Proprietaire":"Nicole","Statut":"nan","Prenom":"Isabelle","Nom":"Calame","Date de naissance":"1762","Age":"70.0","Age_group":"61 \u00e0 70 ans","Nom de jeune fille":"nan","Enfants":"nan","Date de naissance des enfants":"nan","Origine":"nan","Vocation":"Rentiere"},{"Adresse":"Place Saint-Laurent 1","Latitude":46.52234425,"Longitude":6.630782504,"Proprietaire":"Roguin","Statut":"Veuve","Prenom":"nan","Nom":"Weber","Date de naissance":"1779","Age":"53.0","Age_group":"51 \u00e0 60 ans","Nom de jeune fille":"Pachdas","Enfants":"Susette, Mina","Date de naissance des enfants":"1805, 1806","Origine":"Glarens","Vocation":"Rentiere"},{"Adresse":"Place Saint-Laurent 1","Latitude":46.52234425,"Longitude":6.630782504,"Proprietaire":"Roguin","Statut":"nan","Prenom":"Demoiselle","Nom":"Debons","Date de naissance":"1766","Age":"66.0","Age_group":"61 \u00e0 70 ans","Nom de jeune fille":"nan","Enfants":"nan","Date de naissance des enfants":"nan","Origine":"Lausanne","Vocation":"Rentiere"},{"Adresse":"Place Saint-Laurent 1","Latitude":46.52234425,"Longitude":6.630782504,"Proprietaire":"Roguin","Statut":"nan","Prenom":"Elisabeth","Nom":"Debons","Date de naissance":"1776","Age":"56.0","Age_group":"51 \u00e0 60 ans","Nom de jeune fille":"nan","Enfants":"nan","Date de naissance des enfants":"nan","Origine":"Lausanne","Vocation":"Rentiere"},{"Adresse":"Place Saint-Laurent 2","Latitude":46.52234425,"Longitude":6.630782504,"Proprietaire":"Bamblanc","Statut":"Celibataire","Prenom":"Louise","Nom":"Bachoud","Date de naissance":"nan","Age":"nan","Age_group":"nan","Nom de jeune fille":"nan","Enfants":"nan","Date de naissance des enfants":"nan","Origine":"Vevey","Vocation":"Lingere"},{"Adresse":"Route de Chavannes nan","Latitude":46.5235112,"Longitude":6.5929943,"Proprietaire":"Rouge","Statut":"Marie ou Veuve","Prenom":"Jeanne","Nom":"Rouge","Date de naissance":"1774","Age":"58.0","Age_group":"51 \u00e0 60 ans","Nom de jeune fille":"nan","Enfants":"nan","Date de naissance des enfants":"nan","Origine":"Lausanne","Vocation":"Fermiere"},{"Adresse":"Rue Chaucrau 18 bis","Latitude":46.5223835,"Longitude":6.6306989,"Proprietaire":"Grobety","Statut":"Veuve","Prenom":"nan","Nom":"Grobety","Date de naissance":"1753","Age":"79.0","Age_group":"71 \u00e0 80 ans","Nom de jeune fille":"nan","Enfants":"nan","Date de naissance des enfants":"nan","Origine":"Ballaigues","Vocation":"Vigneronne"},{"Adresse":"Rue Chaucrau 29","Latitude":46.5223835,"Longitude":6.6306989,"Proprietaire":"Paschoud","Statut":"nan","Prenom":"Marie","Nom":"Pachel","Date de naissance":"1779","Age":"53.0","Age_group":"51 \u00e0 60 ans","Nom de jeune fille":"nan","Enfants":"Louis, Jenny, Jean, Susette","Date de naissance des enfants":"1816, 1819, 1821, 1823","Origine":"Epalinges","Vocation":" "},{"Adresse":"Rue Chaucrau 25","Latitude":46.5223835,"Longitude":6.6306989,"Proprietaire":"Badanl","Statut":"nan","Prenom":"Henriette","Nom":"Borel","Date de naissance":"1767","Age":"65.0","Age_group":"61 \u00e0 70 ans","Nom de jeune fille":"nan","Enfants":" ","Date de naissance des enfants":" ","Origine":"Geneve","Vocation":" "},{"Adresse":"Rue Chaucrau 22","Latitude":46.5223835,"Longitude":6.6306989,"Proprietaire":"Hollard","Statut":"nan","Prenom":"Elisabeth","Nom":"Hollard","Date de naissance":"1759","Age":"73.0","Age_group":"71 \u00e0 80 ans","Nom de jeune fille":"nan","Enfants":"nan","Date de naissance des enfants":"nan","Origine":"Lausanne","Vocation":"Rentiere"},{"Adresse":"Rue Chaucrau 21","Latitude":46.5223835,"Longitude":6.6306989,"Proprietaire":"Recordon","Statut":"nan","Prenom":"Georgina","Nom":"Muller","Date de naissance":"1770","Age":"62.0","Age_group":"61 \u00e0 70 ans","Nom de jeune fille":"nan","Enfants":"Caroline, Henriette","Date de naissance des enfants":"1796, 1812","Origine":"Lausanne","Vocation":"Rentiere"},{"Adresse":"Rue Chaucrau 33","Latitude":46.5223835,"Longitude":6.6306989,"Proprietaire":"Thuillard","Statut":"nan","Prenom":"Henriette","Nom":"Crispin","Date de naissance":"1780","Age":"52.0","Age_group":"51 \u00e0 60 ans","Nom de jeune fille":"nan","Enfants":" ","Date de naissance des enfants":" ","Origine":"Lausanne","Vocation":"Vigneronne"},{"Adresse":"Rue Chaucrau 22 bis","Latitude":46.5223835,"Longitude":6.6306989,"Proprietaire":"Hollard","Statut":"Veuve","Prenom":"Louise","Nom":"Moinot","Date de naissance":"1793","Age":"39.0","Age_group":"31 \u00e0 40 ans","Nom de jeune fille":"Pingel","Enfants":"Louise, Betty","Date de naissance des enfants":"1819, 1820","Origine":"Lavigny","Vocation":"Institutrice"},{"Adresse":"Rue Chaucrau 27","Latitude":46.5223835,"Longitude":6.6306989,"Proprietaire":"Dentan","Statut":"nan","Prenom":"Susanne","Nom":"Dentan","Date de naissance":"1754","Age":"78.0","Age_group":"71 \u00e0 80 ans","Nom de jeune fille":"nan","Enfants":" ","Date de naissance des enfants":" ","Origine":"Lutry","Vocation":"Fileuse"},{"Adresse":"Rue Chaucrau 28","Latitude":46.5223835,"Longitude":6.6306989,"Proprietaire":"Collomb","Statut":"nan","Prenom":"Susanne","Nom":"Chollet","Date de naissance":"1775","Age":"57.0","Age_group":"51 \u00e0 60 ans","Nom de jeune fille":"nan","Enfants":"Frederic, Fanny","Date de naissance des enfants":"1811, 1814","Origine":"nan","Vocation":"Manoeuvre"},{"Adresse":"Rue Chaucrau 34","Latitude":46.5223835,"Longitude":6.6306989,"Proprietaire":"Jamdmeyer","Statut":"Veuve","Prenom":"nan","Nom":"Veibel","Date de naissance":"1798","Age":"34.0","Age_group":"31 \u00e0 40 ans","Nom de jeune fille":"nan","Enfants":"Jenny","Date de naissance des enfants":"1811","Origine":"nan","Vocation":"Tailleuse"},{"Adresse":"Rue Chaucrau 32","Latitude":46.5223835,"Longitude":6.6306989,"Proprietaire":"Berche","Statut":"Marie ou Veuve","Prenom":"Marie","Nom":"Pernet","Date de naissance":"1790","Age":"42.0","Age_group":"41 \u00e0 50 ans","Nom de jeune fille":"nan","Enfants":" ","Date de naissance des enfants":" ","Origine":"Ormont","Vocation":"Vigneronne"},{"Adresse":"Rue Chaucrau 36","Latitude":46.5223835,"Longitude":6.6306989,"Proprietaire":"Jaunin","Statut":"Veuve","Prenom":"nan","Nom":"Cretenoud","Date de naissance":"1776","Age":"56.0","Age_group":"51 \u00e0 60 ans","Nom de jeune fille":"nan","Enfants":"Francois, Frederic, Jean","Date de naissance des enfants":"1819, 1821, 1825","Origine":"Renens","Vocation":"nan"},{"Adresse":"Rue Chaucrau 33","Latitude":46.5223835,"Longitude":6.6306989,"Proprietaire":"Thuillard","Statut":"nan","Prenom":"nan","Nom":"Lin","Date de naissance":"1800","Age":"32.0","Age_group":"31 \u00e0 40 ans","Nom de jeune fille":"nan","Enfants":" ","Date de naissance des enfants":" ","Origine":"Riaz","Vocation":"Tailleuse"},{"Adresse":"Rue Chaucrau 37","Latitude":46.5223835,"Longitude":6.6306989,"Proprietaire":"Jaunind","Statut":"nan","Prenom":"Charlotte","Nom":"Ringger","Date de naissance":"1780","Age":"52.0","Age_group":"51 \u00e0 60 ans","Nom de jeune fille":" ","Enfants":" ","Date de naissance des enfants":" ","Origine":"Rolle","Vocation":"Fripiere"},{"Adresse":"Rue Chaucrau 17","Latitude":46.5223835,"Longitude":6.6306989,"Proprietaire":"Helfrick","Statut":"nan","Prenom":"Fran\u00e7oise","Nom":"Gillieron","Date de naissance":"1802","Age":"30.0","Age_group":"21 \u00e0 30 ans","Nom de jeune fille":" ","Enfants":" ","Date de naissance des enfants":" ","Origine":"Ropraz","Vocation":" "},{"Adresse":"Rue Chaucrau 17","Latitude":46.5223835,"Longitude":6.6306989,"Proprietaire":"Helfrick","Statut":"Veuve","Prenom":"Louise","Nom":"Favez ","Date de naissance":" ","Age":"nan","Age_group":"nan","Nom de jeune fille":" ","Enfants":"Louise","Date de naissance des enfants":"1808","Origine":"Servion","Vocation":" "},{"Adresse":"Rue Chaucrau 14 bis","Latitude":46.5223835,"Longitude":6.6306989,"Proprietaire":"Blanc ","Statut":"Veuve","Prenom":"Marianne","Nom":"Scheick ","Date de naissance":"1796","Age":"36.0","Age_group":"31 \u00e0 40 ans","Nom de jeune fille":" ","Enfants":"Jeannette","Date de naissance des enfants":"1830","Origine":"Signau","Vocation":"Ouvriere"},{"Adresse":"Rue Chaucrau 30","Latitude":46.5223835,"Longitude":6.6306989,"Proprietaire":"Penneveyret","Statut":"nan","Prenom":"Susanne","Nom":"Leyvraz","Date de naissance":"1793","Age":"39.0","Age_group":"31 \u00e0 40 ans","Nom de jeune fille":"nan","Enfants":"Caroline","Date de naissance des enfants":"1818","Origine":"St Saphorin","Vocation":"Marchande"},{"Adresse":"Rue Cheneau de Bourg 8","Latitude":46.5203293,"Longitude":6.6362499,"Proprietaire":"Keller","Statut":"Veuve","Prenom":"nan","Nom":"Wierchy","Date de naissance":"1772","Age":"60.0","Age_group":"51 \u00e0 60 ans","Nom de jeune fille":"Dolser","Enfants":"Bernard","Date de naissance des enfants":"1808","Origine":"Allemagne","Vocation":"Gypsiere"},{"Adresse":"Rue Cheneau de Bourg 12","Latitude":46.5204404,"Longitude":6.6363593,"Proprietaire":"Rosset","Statut":"Veuve","Prenom":"nan","Nom":"Reymond","Date de naissance":"1774","Age":"58.0","Age_group":"51 \u00e0 60 ans","Nom de jeune fille":"nan","Enfants":"Marie, Jeanny","Date de naissance des enfants":"1808, 1816","Origine":"nan","Vocation":"Tailleuse"},{"Adresse":"Rue Cheneau de Bourg 50","Latitude":46.5204404,"Longitude":6.6363593,"Proprietaire":"Chapuis","Statut":"Veuve","Prenom":"nan","Nom":"Mosslin","Date de naissance":"nan","Age":"nan","Age_group":"nan","Nom de jeune fille":"nan","Enfants":"Marguerite","Date de naissance des enfants":"nan","Origine":"Berne","Vocation":"couturiere"},{"Adresse":"Rue Cheneau de Bourg 19","Latitude":46.5204404,"Longitude":6.6363593,"Proprietaire":"Verrey","Statut":"nan","Prenom":"Isabelle","Nom":"Baudet","Date de naissance":"1772","Age":"60.0","Age_group":"51 \u00e0 60 ans","Nom de jeune fille":" ","Enfants":" ","Date de naissance des enfants":" ","Origine":"Bottens","Vocation":"Repasseuse"},{"Adresse":"Rue Cheneau de Bourg 19","Latitude":46.5204404,"Longitude":6.6363593,"Proprietaire":"Verrey","Statut":"nan","Prenom":"Louise","Nom":"Baudet","Date de naissance":"1774","Age":"58.0","Age_group":"51 \u00e0 60 ans","Nom de jeune fille":"nan","Enfants":"nan","Date de naissance des enfants":"nan","Origine":"Bottens","Vocation":"Repasseuse"},{"Adresse":"Rue Cheneau de Bourg 11","Latitude":46.5204404,"Longitude":6.6363593,"Proprietaire":"Greiner","Statut":"Veuve","Prenom":"nan","Nom":"Loire","Date de naissance":"1774","Age":"58.0","Age_group":"51 \u00e0 60 ans","Nom de jeune fille":"nan","Enfants":"nan","Date de naissance des enfants":"nan","Origine":"Coinsins","Vocation":"Contrepointiere"},{"Adresse":"Rue Cheneau de Bourg 48","Latitude":46.5204404,"Longitude":6.6363593,"Proprietaire":"Favrat","Statut":"Veuve","Prenom":"nan","Nom":"Prolon","Date de naissance":"1768","Age":"64.0","Age_group":"61 \u00e0 70 ans","Nom de jeune fille":"Fraug","Enfants":"Antoine, Jean","Date de naissance des enfants":"1797, 1799","Origine":"Cressy","Vocation":"Briselleuse"},{"Adresse":"Rue Cheneau de Bourg 13","Latitude":46.5204404,"Longitude":6.6363593,"Proprietaire":"Chapuis","Statut":"Veuve","Prenom":"nan","Nom":"Chambaz","Date de naissance":"1797","Age":"35.0","Age_group":"31 \u00e0 40 ans","Nom de jeune fille":"nan","Enfants":"nan","Date de naissance des enfants":"nan","Origine":"Cully","Vocation":"nan"},{"Adresse":"Rue Cheneau de Bourg 40","Latitude":46.5204404,"Longitude":6.6363593,"Proprietaire":"Kirchman","Statut":"Veuve","Prenom":"nan","Nom":"Pache","Date de naissance":"1789","Age":"43.0","Age_group":"41 \u00e0 50 ans","Nom de jeune fille":"nan","Enfants":"Marianne","Date de naissance des enfants":"1809","Origine":"Epalinges","Vocation":"Meuniere"},{"Adresse":"Rue Cheneau de Bourg 20","Latitude":46.5204404,"Longitude":6.6363593,"Proprietaire":"Maget","Statut":"nan","Prenom":"Louise","Nom":"Pachel","Date de naissance":"1805","Age":"27.0","Age_group":"21 \u00e0 30 ans","Nom de jeune fille":" ","Enfants":" ","Date de naissance des enfants":" ","Origine":"Epalinges","Vocation":"Tailleuse"},{"Adresse":"Rue Cheneau de Bourg 18","Latitude":46.5204404,"Longitude":6.6363593,"Proprietaire":"Baud","Statut":"Veuve","Prenom":"nan","Nom":"Baud","Date de naissance":"1766","Age":"66.0","Age_group":"61 \u00e0 70 ans","Nom de jeune fille":"nan","Enfants":" ","Date de naissance des enfants":" ","Origine":"Etagnieres","Vocation":"Rentiere"},{"Adresse":"Rue Cheneau de Bourg 18","Latitude":46.5204404,"Longitude":6.6363593,"Proprietaire":"Baud ","Statut":"Veuve","Prenom":"nan","Nom":"Ogiez","Date de naissance":"1763","Age":"69.0","Age_group":"61 \u00e0 70 ans","Nom de jeune fille":"Muller","Enfants":"Elie","Date de naissance des enfants":"1811","Origine":"France","Vocation":"Garde malade"},{"Adresse":"Rue Cheneau de Bourg 12","Latitude":46.5204404,"Longitude":6.6363593,"Proprietaire":"Rosset","Statut":"nan","Prenom":"Anne Rose","Nom":"Humbert","Date de naissance":"1798","Age":"34.0","Age_group":"31 \u00e0 40 ans","Nom de jeune fille":"nan","Enfants":"nan","Date de naissance des enfants":"nan","Origine":"France","Vocation":"Lingere"},{"Adresse":"Rue Cheneau de Bourg 14 bis","Latitude":46.5204404,"Longitude":6.6363593,"Proprietaire":"Blanc ","Statut":"Celibataire","Prenom":"Jeannette","Nom":"Gaudin","Date de naissance":"1797","Age":"35.0","Age_group":"31 \u00e0 40 ans","Nom de jeune fille":"nan","Enfants":" ","Date de naissance des enfants":" ","Origine":"Lausanne","Vocation":"Journaliere"},{"Adresse":"Rue Cheneau de Bourg 14 bis","Latitude":46.5204404,"Longitude":6.6363593,"Proprietaire":"Blanc ","Statut":"Celibataire","Prenom":"Marianne","Nom":"Gaudin","Date de naissance":"1797","Age":"35.0","Age_group":"31 \u00e0 40 ans","Nom de jeune fille":"nan","Enfants":" ","Date de naissance des enfants":" ","Origine":"Lausanne","Vocation":"Journaliere"},{"Adresse":"Rue Cheneau de Bourg 39","Latitude":46.5204404,"Longitude":6.6363593,"Proprietaire":"Demartines","Statut":"Veuve","Prenom":"nan","Nom":"Blanc","Date de naissance":"1770","Age":"62.0","Age_group":"61 \u00e0 70 ans","Nom de jeune fille":"nan","Enfants":"Samuel, Francois","Date de naissance des enfants":"1806,1800","Origine":"Lausanne","Vocation":"Journaliere"},{"Adresse":"Rue Cheneau de Bourg 46","Latitude":46.5204404,"Longitude":6.6363593,"Proprietaire":"Coeytaux","Statut":"Veuve","Prenom":"nan","Nom":"Chapuis","Date de naissance":"1788","Age":"44.0","Age_group":"41 \u00e0 50 ans","Nom de jeune fille":"Lombard","Enfants":"nan","Date de naissance des enfants":"nan","Origine":"Lausanne","Vocation":"Rentiere"},{"Adresse":"Rue Cheneau de Bourg 46","Latitude":46.5204404,"Longitude":6.6363593,"Proprietaire":"Coeytaux","Statut":"Veuve","Prenom":"nan","Nom":"Parisod","Date de naissance":"1795","Age":"37.0","Age_group":"31 \u00e0 40 ans","Nom de jeune fille":"Magnin","Enfants":"Louis, Jeannette","Date de naissance des enfants":"1800, 1808","Origine":"Lausanne","Vocation":"Rentiere"},{"Adresse":"Rue Cheneau de Bourg 7","Latitude":46.5207041,"Longitude":6.6367021382,"Proprietaire":"Chanson","Statut":"Veuve","Prenom":"nan","Nom":"Pamblanc","Date de naissance":"1767","Age":"65.0","Age_group":"61 \u00e0 70 ans","Nom de jeune fille":"nan","Enfants":"Louise","Date de naissance des enfants":"1790","Origine":"Lausanne","Vocation":"nan"},{"Adresse":"Rue Cheneau de Bourg 42","Latitude":46.5204404,"Longitude":6.6363593,"Proprietaire":"Blanc","Statut":"Marie ou Veuve","Prenom":"Femme de Valentin","Nom":"Stortz","Date de naissance":"nan","Age":"nan","Age_group":"nan","Nom de jeune fille":"Chevalley","Enfants":"Jenny, Louise","Date de naissance des enfants":"1820, 1823","Origine":"Lavigny","Vocation":"Journaliere"},{"Adresse":"Rue Cheneau de Bourg 21","Latitude":46.5204404,"Longitude":6.6363593,"Proprietaire":"Pascal","Statut":"nan","Prenom":"Jeanne Louise","Nom":"Lavanchy","Date de naissance":"nan","Age":"nan","Age_group":"nan","Nom de jeune fille":"nan","Enfants":"nan","Date de naissance des enfants":"nan","Origine":"Lutry","Vocation":"Tailleuse"},{"Adresse":"Rue Cheneau de Bourg 21","Latitude":46.5204404,"Longitude":6.6363593,"Proprietaire":"Pascal","Statut":"Veuve","Prenom":"nan","Nom":"Pascal","Date de naissance":"1779","Age":"53.0","Age_group":"51 \u00e0 60 ans","Nom de jeune fille":"nan","Enfants":"Louise","Date de naissance des enfants":"1809","Origine":"Pompaples","Vocation":"Vendeuse"},{"Adresse":"Rue Cheneau de Bourg 8","Latitude":46.5203293,"Longitude":6.6362499,"Proprietaire":"Keller","Statut":"Veuve","Prenom":"nan","Nom":"Margot","Date de naissance":"1781","Age":"51.0","Age_group":"51 \u00e0 60 ans","Nom de jeune fille":"nan","Enfants":"Henri ","Date de naissance des enfants":"1809","Origine":"Sainte-Croix","Vocation":"Journaliere"},{"Adresse":"Rue Cheneau de Bourg 6","Latitude":46.5204998,"Longitude":6.636272,"Proprietaire":"Merlaz","Statut":"nan","Prenom":"Jeanne Marie","Nom":"Renaud","Date de naissance":"nan","Age":"nan","Age_group":"nan","Nom de jeune fille":"nan","Enfants":"nan","Date de naissance des enfants":"nan","Origine":"St Georges","Vocation":"Tailleuse"},{"Adresse":"Rue Cheneau de Bourg 38","Latitude":46.5204404,"Longitude":6.6363593,"Proprietaire":"Wehilix","Statut":"Veuve","Prenom":"nan","Nom":"Favex","Date de naissance":"1775","Age":"57.0","Age_group":"51 \u00e0 60 ans","Nom de jeune fille":"nan","Enfants":"Hugette, Louise","Date de naissance des enfants":"1806,1800","Origine":"Vuarrens","Vocation":"Journaliere"},{"Adresse":"Rue Cheneau de Bourg 39","Latitude":46.5204404,"Longitude":6.6363593,"Proprietaire":"Demartines","Statut":"Marie ou Veuve","Prenom":"Jeanette","Nom":"Falconnier","Date de naissance":"1778","Age":"54.0","Age_group":"51 \u00e0 60 ans","Nom de jeune fille":"nan","Enfants":"Jube","Date de naissance des enfants":"1803","Origine":"Vulliens","Vocation":"Journaliere"},{"Adresse":"Rue Cheneau de Bourg 35","Latitude":46.5204404,"Longitude":6.6363593,"Proprietaire":"Grand","Statut":"Veuve","Prenom":"nan","Nom":"Cretton","Date de naissance":"1780","Age":"52.0","Age_group":"51 \u00e0 60 ans","Nom de jeune fille":"nan","Enfants":"Marie","Date de naissance des enfants":"1809","Origine":"nan","Vocation":"Cuisiniere"},{"Adresse":"Rue Cheneau de Bourg 13","Latitude":46.5204404,"Longitude":6.6363593,"Proprietaire":"Rosset","Statut":"Marie ou Veuve","Prenom":"Jeanne","Nom":"Meyer","Date de naissance":"nan","Age":"nan","Age_group":"nan","Nom de jeune fille":"nan","Enfants":"Emma","Date de naissance des enfants":"1824","Origine":"nan","Vocation":"Ouvriere"},{"Adresse":"Rue Cite Derriere 2","Latitude":46.5229971,"Longitude":6.6361385012,"Proprietaire":"Guisan","Statut":"Veuve","Prenom":"nan","Nom":"Guisans","Date de naissance":"1780","Age":"52.0","Age_group":"51 \u00e0 60 ans","Nom de jeune fille":"nan","Enfants":"Charles, Fran\u00e7ois, Louis, Gabrielle","Date de naissance des enfants":"1804, 1805, 1807, 1815","Origine":"Avanches","Vocation":"Rentiere"},{"Adresse":"Rue Cite Derriere 25","Latitude":46.5235893,"Longitude":6.6361615,"Proprietaire":"Hoirs Pache","Statut":"nan","Prenom":"Lisette","Nom":"Gutknecht","Date de naissance":"1750","Age":"82.0","Age_group":"81 \u00e0 90 ans","Nom de jeune fille":"nan","Enfants":" ","Date de naissance des enfants":" ","Origine":"Canton de Fribourg","Vocation":"Sans Vocation"},{"Adresse":"Rue Cite Derriere 15","Latitude":46.52377,"Longitude":6.6360493145,"Proprietaire":"Gindre","Statut":"Marie ou Veuve","Prenom":"Lisette","Nom":"Lesser","Date de naissance":"1779","Age":"53.0","Age_group":"51 \u00e0 60 ans","Nom de jeune fille":"nan","Enfants":"Jacques, Jeannette, Louis, Marc","Date de naissance des enfants":"1813, 1810, 1818, 1820","Origine":"Canton d'Argovie","Vocation":"Sans Vocation"},{"Adresse":"Rue Cite Derriere 25","Latitude":46.5235893,"Longitude":6.6361615,"Proprietaire":"Hoirs Pache","Statut":"nan","Prenom":"Fran\u00e7oise","Nom":"Pache ","Date de naissance":"1790","Age":"42.0","Age_group":"41 \u00e0 50 ans","Nom de jeune fille":"nan","Enfants":" ","Date de naissance des enfants":" ","Origine":"Epalinges","Vocation":"Domestique"},{"Adresse":"Rue Cite Derriere 12","Latitude":46.5232645,"Longitude":6.636123158,"Proprietaire":"Bastian","Statut":"Veuve","Prenom":"nan","Nom":"Perret","Date de naissance":"1745","Age":"87.0","Age_group":"81 \u00e0 90 ans","Nom de jeune fille":"Dusserto","Enfants":"Jean, Lisette, Henriette","Date de naissance des enfants":"1805, 1802, 1814","Origine":"Essertines","Vocation":"Journaliere"},{"Adresse":"Rue Cite Derriere 3","Latitude":46.5231237,"Longitude":6.6356758063,"Proprietaire":"Bourkart","Statut":"nan","Prenom":"Louise","Nom":"Besson","Date de naissance":"1788","Age":"44.0","Age_group":"41 \u00e0 50 ans","Nom de jeune fille":" ","Enfants":" ","Date de naissance des enfants":" ","Origine":"Freytorrens","Vocation":"Couturiere"},{"Adresse":"Rue Cite Derriere 3","Latitude":46.5231237,"Longitude":6.6356758063,"Proprietaire":"Bourkart","Statut":"Veuve","Prenom":"nan","Nom":"Barrat","Date de naissance":"1785","Age":"47.0","Age_group":"41 \u00e0 50 ans","Nom de jeune fille":"nan","Enfants":"Marie, Fabien, Jeannette","Date de naissance des enfants":"1810, 1812, 1816","Origine":"Frybourg ","Vocation":"Journaliere"},{"Adresse":"Rue Cite Derriere 31","Latitude":46.5235893,"Longitude":6.6361615,"Proprietaire":"Cheseau","Statut":"Marie ou Veuve","Prenom":"Marie","Nom":"Rochat","Date de naissance":"1761","Age":"71.0","Age_group":"71 \u00e0 80 ans","Nom de jeune fille":"nan","Enfants":" ","Date de naissance des enfants":" ","Origine":"L'Abbaye","Vocation":"Sans Vocation"},{"Adresse":"Rue Cite Derriere 5","Latitude":46.52324365,"Longitude":6.6357844386,"Proprietaire":"Chevalley","Statut":"Marie ou Veuve","Prenom":"Fanchette","Nom":"Reymond","Date de naissance":"1795","Age":"37.0","Age_group":"31 \u00e0 40 ans","Nom de jeune fille":"nan","Enfants":"Jeannette","Date de naissance des enfants":"1818","Origine":"L'Abbaye","Vocation":"Tailleuse"},{"Adresse":"Rue Cite Derriere 9","Latitude":46.5235755,"Longitude":6.6359144738,"Proprietaire":"Corbaz","Statut":"Marie ou Veuve","Prenom":"Veronique","Nom":"Corbaz","Date de naissance":"1769","Age":"63.0","Age_group":"61 \u00e0 70 ans","Nom de jeune fille":"Borgeau","Enfants":"Samuel, Marguerite","Date de naissance des enfants":"1808, 1809","Origine":"Lausanne","Vocation":"Journaliere"},{"Adresse":"Rue Cite Derriere 38","Latitude":46.5235893,"Longitude":6.6361615,"Proprietaire":"Bugnon","Statut":"Veuve","Prenom":"nan","Nom":"Bugnon","Date de naissance":"1747","Age":"85.0","Age_group":"81 \u00e0 90 ans","Nom de jeune fille":"nan","Enfants":" ","Date de naissance des enfants":" ","Origine":"Lausanne","Vocation":"Rentiere"},{"Adresse":"Rue Cite Derriere 30","Latitude":46.5235893,"Longitude":6.6361615,"Proprietaire":"Capt","Statut":"nan","Prenom":"Louise","Nom":"Constant","Date de naissance":"1762","Age":"70.0","Age_group":"61 \u00e0 70 ans","Nom de jeune fille":"nan","Enfants":" ","Date de naissance des enfants":" ","Origine":"Lausanne","Vocation":"Rentiere"},{"Adresse":"Rue Cite Derriere 38","Latitude":46.5235893,"Longitude":6.6361615,"Proprietaire":"Bugnon","Statut":"Marie ou Veuve","Prenom":"Charlotte","Nom":"Durand","Date de naissance":"1770","Age":"62.0","Age_group":"61 \u00e0 70 ans","Nom de jeune fille":"nan","Enfants":" ","Date de naissance des enfants":" ","Origine":"Lausanne","Vocation":"Rentiere"},{"Adresse":"Rue Cite Derriere 35","Latitude":46.5235893,"Longitude":6.6361615,"Proprietaire":"Curtaz","Statut":"nan","Prenom":"Isabelle","Nom":"Bergier","Date de naissance":"1785","Age":"47.0","Age_group":"41 \u00e0 50 ans","Nom de jeune fille":"nan","Enfants":" ","Date de naissance des enfants":" ","Origine":"Lausanne","Vocation":"Rentiere"},{"Adresse":"Rue Cite Derriere 1","Latitude":46.52403795,"Longitude":6.6359496295,"Proprietaire":"Ballif","Statut":"Marie ou Veuve","Prenom":"Susanne","Nom":"Cartier","Date de naissance":"1790","Age":"42.0","Age_group":"41 \u00e0 50 ans","Nom de jeune fille":"nan","Enfants":"Emma","Date de naissance des enfants":"1813","Origine":"Lausanne","Vocation":"Rentiere"},{"Adresse":"Rue Cite Derriere 27","Latitude":46.5235893,"Longitude":6.6361615,"Proprietaire":"Portaz","Statut":"nan","Prenom":"Albertine","Nom":"Portaz","Date de naissance":"1808","Age":"24.0","Age_group":"21 \u00e0 30 ans","Nom de jeune fille":"nan","Enfants":"Charles, Elisa, Fran\u00e7ois, Nanci","Date de naissance des enfants":"1807, 1812, 1816, 1820","Origine":"Lausanne","Vocation":"Sans Vocation"},{"Adresse":"Rue Cite Derriere 9","Latitude":46.5235755,"Longitude":6.6359144738,"Proprietaire":"Corbaz","Statut":"Marie ou Veuve","Prenom":"Susette","Nom":"Corbaz","Date de naissance":"1787","Age":"45.0","Age_group":"41 \u00e0 50 ans","Nom de jeune fille":"Kog","Enfants":"Louis, Fran\u00e7oise","Date de naissance des enfants":"1820, 1822","Origine":"Le mont","Vocation":"nan"},{"Adresse":"Rue Cite Derriere 8","Latitude":46.52312505,"Longitude":6.6360188597,"Proprietaire":"Corbaz","Statut":"Veuve","Prenom":"nan","Nom":"Corbaz","Date de naissance":"1789","Age":"43.0","Age_group":"41 \u00e0 50 ans","Nom de jeune fille":"Narbel","Enfants":"Susette","Date de naissance des enfants":"1820","Origine":"Mont","Vocation":"Lessiveuse"},{"Adresse":"Rue Cite Derriere 23","Latitude":46.5235893,"Longitude":6.6361615,"Proprietaire":"Blanc","Statut":"Veuve","Prenom":"nan","Nom":"Corbaz","Date de naissance":"1791","Age":"41.0","Age_group":"41 \u00e0 50 ans","Nom de jeune fille":"nan","Enfants":"Jean, Gabriel","Date de naissance des enfants":"1816, 1818","Origine":"Mont ","Vocation":"Journaliere"},{"Adresse":"Rue Cite Derriere 33","Latitude":46.5235893,"Longitude":6.6361615,"Proprietaire":"Tissot","Statut":"Veuve","Prenom":"nan","Nom":"Tissot","Date de naissance":"1785","Age":"47.0","Age_group":"41 \u00e0 50 ans","Nom de jeune fille":"nan","Enfants":" ","Date de naissance des enfants":" ","Origine":"France","Vocation":"Rentiere"},{"Adresse":"Rue Cite Derriere 29","Latitude":46.5235893,"Longitude":6.6361615,"Proprietaire":"Furtaz","Statut":"nan","Prenom":"Marianne","Nom":"Besan\u00e7on","Date de naissance":"1759","Age":"73.0","Age_group":"71 \u00e0 80 ans","Nom de jeune fille":"nan","Enfants":" ","Date de naissance des enfants":" ","Origine":"Moudon ","Vocation":"Rentiere"},{"Adresse":"Rue Cite Derriere 29","Latitude":46.5235893,"Longitude":6.6361615,"Proprietaire":"Furtaz","Statut":"Marie ou Veuve","Prenom":"Rose","Nom":"Recordon","Date de naissance":"1771","Age":"61.0","Age_group":"61 \u00e0 70 ans","Nom de jeune fille":"nan","Enfants":"Anne","Date de naissance des enfants":"1806","Origine":"Rances","Vocation":"Rentiere"},{"Adresse":"Rue Cite Derriere 24","Latitude":46.5235893,"Longitude":6.6361615,"Proprietaire":"Mange","Statut":"nan","Prenom":"Albertine","Nom":"Mange","Date de naissance":"1796","Age":"36.0","Age_group":"31 \u00e0 40 ans","Nom de jeune fille":"nan","Enfants":" ","Date de naissance des enfants":" ","Origine":"Rougemont","Vocation":"Rentiere"},{"Adresse":"Rue Cite Derriere 26","Latitude":46.5235893,"Longitude":6.6361615,"Proprietaire":"Wittwert","Statut":"Veuve","Prenom":"nan","Nom":"Durand","Date de naissance":"1799","Age":"33.0","Age_group":"31 \u00e0 40 ans","Nom de jeune fille":"nan","Enfants":"Louis, Henry","Date de naissance des enfants":"1817, 1819","Origine":"Vevey","Vocation":"Rentiere"},{"Adresse":"Rue Cite Derriere 12","Latitude":46.5232645,"Longitude":6.636123158,"Proprietaire":"Chappuis","Statut":"Veuve","Prenom":"nan","Nom":"Chappuis","Date de naissance":"1784","Age":"48.0","Age_group":"41 \u00e0 50 ans","Nom de jeune fille":"Buffat","Enfants":"Louise, Louis","Date de naissance des enfants":"1820, 1822","Origine":"Vuarrens","Vocation":"Vendeuse"},{"Adresse":"Rue Cite Devant 18","Latitude":46.5235827,"Longitude":6.6352993,"Proprietaire":"Buathard","Statut":"nan","Prenom":"Charlotte","Nom":"Barclay","Date de naissance":"1790","Age":"42.0","Age_group":"41 \u00e0 50 ans","Nom de jeune fille":"nan","Enfants":"nan","Date de naissance des enfants":"nan","Origine":"Angleterre","Vocation":"Rentiere"},{"Adresse":"Rue Cite Devant 18","Latitude":46.5235827,"Longitude":6.6352993,"Proprietaire":"Buathard","Statut":"nan","Prenom":"Henriette","Nom":"Barclay","Date de naissance":"1792","Age":"40.0","Age_group":"31 \u00e0 40 ans","Nom de jeune fille":"nan","Enfants":"nan","Date de naissance des enfants":"nan","Origine":"Angleterre","Vocation":"Rentiere"},{"Adresse":"Rue Cite Devant 28","Latitude":46.5235827,"Longitude":6.6352993,"Proprietaire":"Renaud","Statut":"Marie ou Veuve","Prenom":"Louise","Nom":"Leresche","Date de naissance":"1755","Age":"77.0","Age_group":"71 \u00e0 80 ans","Nom de jeune fille":"nan","Enfants":"Eugene","Date de naissance des enfants":"1802","Origine":"Ballaigues","Vocation":"Rentiere"},{"Adresse":"Rue Cite Devant 17","Latitude":46.5235827,"Longitude":6.6352993,"Proprietaire":"Isely","Statut":"Marie ou Veuve","Prenom":"Sophie","Nom":"Genoland","Date de naissance":"1777","Age":"55.0","Age_group":"51 \u00e0 60 ans","Nom de jeune fille":"nan","Enfants":"Susette","Date de naissance des enfants":"1823","Origine":"Corbeyrier","Vocation":"Rentiere"},{"Adresse":"Rue Cite Devant 16","Latitude":46.5235827,"Longitude":6.6352993,"Proprietaire":"Martin Diemer","Statut":"Marie ou Veuve","Prenom":"Jeannette","Nom":"Monairon","Date de naissance":"1776","Age":"56.0","Age_group":"51 \u00e0 60 ans","Nom de jeune fille":"nan","Enfants":"nan","Date de naissance des enfants":"nan","Origine":"Fechy","Vocation":"Journaliere"},{"Adresse":"Rue Cite Devant 23","Latitude":46.5235827,"Longitude":6.6352993,"Proprietaire":"Galliker","Statut":"nan","Prenom":"Henriette","Nom":"Galliker","Date de naissance":"1799","Age":"33.0","Age_group":"31 \u00e0 40 ans","Nom de jeune fille":"nan","Enfants":" ","Date de naissance des enfants":" ","Origine":"Haggenschwil","Vocation":"Rentiere"},{"Adresse":"Rue Cite Devant 23","Latitude":46.5235827,"Longitude":6.6352993,"Proprietaire":"Galliker","Statut":"nan","Prenom":"Charlotte","Nom":"Galliker","Date de naissance":"1786","Age":"46.0","Age_group":"41 \u00e0 50 ans","Nom de jeune fille":"nan","Enfants":" ","Date de naissance des enfants":" ","Origine":"Halsvil","Vocation":"Rentiere"},{"Adresse":"Rue Cite Devant 19","Latitude":46.5235827,"Longitude":6.6352993,"Proprietaire":"Corbaz","Statut":"Marie ou Veuve","Prenom":"Anyline ","Nom":"Brot","Date de naissance":"1754","Age":"78.0","Age_group":"71 \u00e0 80 ans","Nom de jeune fille":"nan","Enfants":"Gonnet","Date de naissance des enfants":"nan","Origine":"Lausanne","Vocation":"Fileuse"},{"Adresse":"Rue Cite Devant 30","Latitude":46.5235827,"Longitude":6.6352993,"Proprietaire":"Corbaz","Statut":"nan","Prenom":"Lisette","Nom":"Descombes","Date de naissance":"1774","Age":"58.0","Age_group":"51 \u00e0 60 ans","Nom de jeune fille":"nan","Enfants":"nan","Date de naissance des enfants":"nan","Origine":"Lausanne","Vocation":"Rentiere"},{"Adresse":"Rue Cite Devant 25","Latitude":46.5235827,"Longitude":6.6352993,"Proprietaire":"Mellet","Statut":"nan","Prenom":"Fanchette","Nom":"Mellet","Date de naissance":"1780","Age":"52.0","Age_group":"51 \u00e0 60 ans","Nom de jeune fille":"nan","Enfants":" ","Date de naissance des enfants":" ","Origine":"Lausanne","Vocation":"Rentiere"},{"Adresse":"Rue Cite Devant 14","Latitude":46.5239833,"Longitude":6.6356948084,"Proprietaire":"Blanc","Statut":"Veuve","Prenom":"nan","Nom":"Blanc","Date de naissance":"1782","Age":"50.0","Age_group":"41 \u00e0 50 ans","Nom de jeune fille":"nan","Enfants":"nan","Date de naissance des enfants":"nan","Origine":"Lausanne","Vocation":"Sans vocation"},{"Adresse":"Rue Cite Devant 30","Latitude":46.5235827,"Longitude":6.6352993,"Proprietaire":"Corbaz","Statut":"nan","Prenom":"Jeanne","Nom":"Jaques","Date de naissance":"1786","Age":"46.0","Age_group":"41 \u00e0 50 ans","Nom de jeune fille":"nan","Enfants":"nan","Date de naissance des enfants":"nan","Origine":"Sainte-Croix","Vocation":"Rentiere"},{"Adresse":"Rue Cite Devant 29","Latitude":46.5235827,"Longitude":6.6352993,"Proprietaire":"Meistre","Statut":"Marie ou Veuve","Prenom":"Marie","Nom":"Meistre","Date de naissance":"1790","Age":"42.0","Age_group":"41 \u00e0 50 ans","Nom de jeune fille":"nan","Enfants":"Samuel, Emilie, Frederic","Date de naissance des enfants":"1813, 1817, 1818","Origine":"Thierrens","Vocation":"Lingere"},{"Adresse":"Rue de Bourg 12","Latitude":46.5200333,"Longitude":6.6349163,"Proprietaire":"Knat","Statut":"nan","Prenom":"Christine","Nom":"Nicole","Date de naissance":"1791","Age":"41.0","Age_group":"41 \u00e0 50 ans","Nom de jeune fille":" ","Enfants":" ","Date de naissance des enfants":" ","Origine":" ","Vocation":" "},{"Adresse":"Rue de Bourg 33","Latitude":46.5200969,"Longitude":6.6357277827,"Proprietaire":"Valentin","Statut":"Marie ou Veuve","Prenom":"Comtesse Rosine","Nom":"de Haurer","Date de naissance":"nan","Age":"nan","Age_group":"nan","Nom de jeune fille":"Larisot","Enfants":"Rose, Jade","Date de naissance des enfants":"nan","Origine":"Allemagne","Vocation":"Rentiere"},{"Adresse":"Rue de Bourg 30","Latitude":46.5198347,"Longitude":6.6364858,"Proprietaire":"Pollier","Statut":"Marie ou Veuve","Prenom":"nan","Nom":"Krieg","Date de naissance":"1801","Age":"31.0","Age_group":"31 \u00e0 40 ans","Nom de jeune fille":"Corbaz","Enfants":"David","Date de naissance des enfants":"1824","Origine":"Berne","Vocation":"Blanchisseuse"},{"Adresse":"Rue de Bourg 28","Latitude":46.519869,"Longitude":6.6362795,"Proprietaire":"Constant","Statut":"Marie ou Veuve","Prenom":"Elisabeth","Nom":"Heller","Date de naissance":"1796","Age":"36.0","Age_group":"31 \u00e0 40 ans","Nom de jeune fille":"nan","Enfants":" ","Date de naissance des enfants":" ","Origine":"Berne","Vocation":"Rentiere"},{"Adresse":"Rue de Bourg 38","Latitude":46.5200686,"Longitude":6.6338506,"Proprietaire":"Pollier de Bottens","Statut":"nan","Prenom":"Alexandrine","Nom":"de Gingins","Date de naissance":"nan","Age":"nan","Age_group":"nan","Nom de jeune fille":"nan","Enfants":"nan","Date de naissance des enfants":"nan","Origine":"Berne","Vocation":"nan"},{"Adresse":"Rue de Bourg 22","Latitude":46.5199749,"Longitude":6.6356141,"Proprietaire":"Coeytaux","Statut":"Veuve","Prenom":"nan","Nom":"Schutel","Date de naissance":"nan","Age":"nan","Age_group":"nan","Nom de jeune fille":" ","Enfants":" ","Date de naissance des enfants":" ","Origine":"Bumplitz","Vocation":"Pensionnaire"},{"Adresse":"Rue de Bourg 12","Latitude":46.5200333,"Longitude":6.6349163,"Proprietaire":"Knat","Statut":"nan","Prenom":"Susanne","Nom":"Nicole","Date de naissance":"1790","Age":"42.0","Age_group":"41 \u00e0 50 ans","Nom de jeune fille":" ","Enfants":" ","Date de naissance des enfants":" ","Origine":"Chenet","Vocation":"Journaliere"},{"Adresse":"Rue de Bourg 7","Latitude":46.5202818,"Longitude":6.634259057,"Proprietaire":"Hignou","Statut":"nan","Prenom":"Charlotte","Nom":"Hignou","Date de naissance":"1776","Age":"56.0","Age_group":"51 \u00e0 60 ans","Nom de jeune fille":" ","Enfants":" ","Date de naissance des enfants":" ","Origine":"France","Vocation":"Libraire"},{"Adresse":"Rue de Bourg 15","Latitude":46.520191,"Longitude":6.6346831471,"Proprietaire":"Longchamp","Statut":"Marie ou Veuve","Prenom":"Lydie","Nom":"Fontanne","Date de naissance":"1773","Age":"59.0","Age_group":"51 \u00e0 60 ans","Nom de jeune fille":"nan","Enfants":"Fran\u00e7ois","Date de naissance des enfants":"1798","Origine":"France","Vocation":"Marchande"},{"Adresse":"Rue de Bourg 3","Latitude":46.5201939,"Longitude":6.6341083743,"Proprietaire":"Dellient","Statut":"nan","Prenom":"Pauline","Nom":"Rupf","Date de naissance":"1804","Age":"28.0","Age_group":"21 \u00e0 30 ans","Nom de jeune fille":" ","Enfants":" ","Date de naissance des enfants":" ","Origine":"Genay","Vocation":" "},{"Adresse":"Rue de Bourg 38","Latitude":46.5200686,"Longitude":6.6338506,"Proprietaire":"Pollier de Bottens","Statut":"nan","Prenom":"Jeanne","Nom":"Polier","Date de naissance":"1758","Age":"74.0","Age_group":"71 \u00e0 80 ans","Nom de jeune fille":"nan","Enfants":"nan","Date de naissance des enfants":"nan","Origine":"Lausanne","Vocation":"Monture"},{"Adresse":"Rue de Bourg 37","Latitude":46.52010575,"Longitude":6.6360231179,"Proprietaire":"Cerjeat","Statut":"Marie ou Veuve","Prenom":"Jeanne Marie","Nom":"Ganeard","Date de naissance":"1770","Age":"62.0","Age_group":"61 \u00e0 70 ans","Nom de jeune fille":"nan","Enfants":"nan","Date de naissance des enfants":"nan","Origine":"Lausanne","Vocation":"Monture"},{"Adresse":"Rue de Bourg 31","Latitude":46.5201385,"Longitude":6.6355671889,"Proprietaire":"Mestral","Statut":"Marie ou Veuve","Prenom":"Henriette","Nom":"De Mestral","Date de naissance":"1740","Age":"92.0","Age_group":"91 ans et plus","Nom de jeune fille":"De St Saphorin","Enfants":"Henriette","Date de naissance des enfants":"1767","Origine":"Lausanne","Vocation":"Rentiere"},{"Adresse":"Rue de Bourg 28","Latitude":46.519869,"Longitude":6.6362795,"Proprietaire":"Constant","Statut":"nan","Prenom":"Catherine","Nom":"De Seigneux","Date de naissance":"1746","Age":"86.0","Age_group":"81 \u00e0 90 ans","Nom de jeune fille":"nan","Enfants":"Charlotte, Rosette","Date de naissance des enfants":"1780, 1787","Origine":"Lausanne","Vocation":"Rentiere"},{"Adresse":"Rue de Bourg 19","Latitude":46.5201808,"Longitude":6.6349012722,"Proprietaire":"Spring","Statut":"Veuve","Prenom":"nan","Nom":"Francillon","Date de naissance":"1766","Age":"66.0","Age_group":"61 \u00e0 70 ans","Nom de jeune fille":"nan","Enfants":" ","Date de naissance des enfants":" ","Origine":"Lausanne","Vocation":"Rentiere"},{"Adresse":"Rue de Bourg 1","Latitude":46.5201305,"Longitude":6.6339991,"Proprietaire":"Jaccard","Statut":"nan","Prenom":"Pauline","Nom":"Demolin","Date de naissance":"1769","Age":"63.0","Age_group":"61 \u00e0 70 ans","Nom de jeune fille":" ","Enfants":" ","Date de naissance des enfants":" ","Origine":"Lausanne","Vocation":"Rentiere"},{"Adresse":"Rue de Bourg 30","Latitude":46.5198347,"Longitude":6.6364858,"Proprietaire":"Pollier","Statut":"nan","Prenom":"Eglantine","Nom":"Effinguer","Date de naissance":"1770","Age":"62.0","Age_group":"61 \u00e0 70 ans","Nom de jeune fille":"nan","Enfants":"nan","Date de naissance des enfants":"nan","Origine":"Lausanne","Vocation":"Rentiere"},{"Adresse":"Rue de Bourg 22","Latitude":46.5199749,"Longitude":6.6356141,"Proprietaire":"Coeytaux","Statut":"Veuve","Prenom":"nan","Nom":"Taillens","Date de naissance":"1782","Age":"50.0","Age_group":"41 \u00e0 50 ans","Nom de jeune fille":"nan","Enfants":" ","Date de naissance des enfants":" ","Origine":"Lausanne","Vocation":"Rentiere"},{"Adresse":"Rue de Bourg 30","Latitude":46.5198347,"Longitude":6.6364858,"Proprietaire":"Pollier","Statut":"nan","Prenom":"Marie","Nom":"De Pollier","Date de naissance":"nan","Age":"nan","Age_group":"nan","Nom de jeune fille":"nan","Enfants":"nan","Date de naissance des enfants":"nan","Origine":"Lausanne","Vocation":"Rentiere"},{"Adresse":"Rue de Bourg 8","Latitude":46.5200362,"Longitude":6.6344889,"Proprietaire":"Wenger","Statut":"nan","Prenom":"Louise","Nom":"Delaperry","Date de naissance":"1803","Age":"29.0","Age_group":"21 \u00e0 30 ans","Nom de jeune fille":"nan","Enfants":"nan","Date de naissance des enfants":"nan","Origine":"Lausanne","Vocation":"Tailleuse"},{"Adresse":"Rue de Bourg 8","Latitude":46.5200362,"Longitude":6.6344889,"Proprietaire":"Wenger","Statut":"nan","Prenom":"Susanne","Nom":"Delaperry","Date de naissance":"1805","Age":"27.0","Age_group":"21 \u00e0 30 ans","Nom de jeune fille":"nan","Enfants":"nan","Date de naissance des enfants":"nan","Origine":"Lausanne","Vocation":"Tailleuse"},{"Adresse":"Rue de Bourg 14","Latitude":46.5200124,"Longitude":6.6350521,"Proprietaire":"Verrey","Statut":"Marie ou Veuve","Prenom":"Elisabeth","Nom":"Blanchet","Date de naissance":"1778","Age":"54.0","Age_group":"51 \u00e0 60 ans","Nom de jeune fille":"nan","Enfants":" ","Date de naissance des enfants":" ","Origine":"Lutry","Vocation":" "},{"Adresse":"Rue de Bourg 14","Latitude":46.5200124,"Longitude":6.6350521,"Proprietaire":"Verrey","Statut":"nan","Prenom":"Charlotte","Nom":"Blanchet","Date de naissance":"1814","Age":"18.0","Age_group":"20 ans et moins","Nom de jeune fille":" ","Enfants":" ","Date de naissance des enfants":" ","Origine":"Lutry","Vocation":" "},{"Adresse":"Rue de Bourg 27","Latitude":46.5201426,"Longitude":6.6351941607,"Proprietaire":"Bourgeois","Statut":"Veuve","Prenom":"nan","Nom":"Bourgeois","Date de naissance":"1763","Age":"69.0","Age_group":"61 \u00e0 70 ans","Nom de jeune fille":"nan","Enfants":"Antoine","Date de naissance des enfants":"1809","Origine":"Lutry","Vocation":"Rentiere"},{"Adresse":"Rue de Bourg 22","Latitude":46.5199749,"Longitude":6.6356141,"Proprietaire":"Coeytaux","Statut":"nan","Prenom":"Catherine","Nom":"Chambaz","Date de naissance":"1771","Age":"61.0","Age_group":"61 \u00e0 70 ans","Nom de jeune fille":" ","Enfants":" ","Date de naissance des enfants":" ","Origine":"nan","Vocation":"Fileuse"},{"Adresse":"Rue de Bourg 21","Latitude":46.52021135,"Longitude":6.6349670549,"Proprietaire":"Burnens","Statut":"nan","Prenom":"Fran\u00e7oise Louise","Nom":"Dantreizer","Date de naissance":"1803","Age":"29.0","Age_group":"21 \u00e0 30 ans","Nom de jeune fille":"nan","Enfants":" ","Date de naissance des enfants":" ","Origine":"Neuchatel","Vocation":"Institutrice"},{"Adresse":"Rue de Bourg 34","Latitude":46.5200686,"Longitude":6.6338506,"Proprietaire":"Valier","Statut":"Marie ou Veuve","Prenom":"Henriette","Nom":"Feller","Date de naissance":"1800","Age":"32.0","Age_group":"31 \u00e0 40 ans","Nom de jeune fille":"nan","Enfants":"nan","Date de naissance des enfants":"nan","Origine":"Orbe","Vocation":"Institutrice"},{"Adresse":"Rue de Bourg 30","Latitude":46.5198347,"Longitude":6.6364858,"Proprietaire":"Pollier","Statut":"Veuve","Prenom":"nan","Nom":"Scherer","Date de naissance":"1776","Age":"56.0","Age_group":"51 \u00e0 60 ans","Nom de jeune fille":"Algosser","Enfants":"Charlotte, Adelaide, Louis","Date de naissance des enfants":"1796, 1806, 1803","Origine":"Walterswil","Vocation":"Marchande"},{"Adresse":"Rue de Bourg 40","Latitude":46.5200686,"Longitude":6.6338506,"Proprietaire":"Crousaz","Statut":"nan","Prenom":"Elisabeth","Nom":"Crousaz","Date de naissance":"1804","Age":"28.0","Age_group":"21 \u00e0 30 ans","Nom de jeune fille":"nan","Enfants":"nan","Date de naissance des enfants":"nan","Origine":"nan","Vocation":"nan"},{"Adresse":"Rue de Bourg 40","Latitude":46.5200686,"Longitude":6.6338506,"Proprietaire":"Crousaz","Statut":"nan","Prenom":"Marie","Nom":"Crousaz","Date de naissance":"1808","Age":"24.0","Age_group":"21 \u00e0 30 ans","Nom de jeune fille":"nan","Enfants":"nan","Date de naissance des enfants":"nan","Origine":"nan","Vocation":"nan"},{"Adresse":"Rue Saint-Pierre 25","Latitude":46.5201796,"Longitude":6.6351039342,"Proprietaire":"Milliguet","Statut":"nan","Prenom":"Henriette","Nom":"Casenove","Date de naissance":"1752","Age":"80.0","Age_group":"71 \u00e0 80 ans","Nom de jeune fille":"nan","Enfants":"nan","Date de naissance des enfants":"nan","Origine":"Amsterdam","Vocation":"Rentiere"},{"Adresse":"Rue Saint-Pierre 16","Latitude":46.5199939,"Longitude":6.6351596,"Proprietaire":"Defsel","Statut":"nan","Prenom":"Jenny","Nom":"Lewis","Date de naissance":"1750","Age":"82.0","Age_group":"81 \u00e0 90 ans","Nom de jeune fille":"nan","Enfants":"nan","Date de naissance des enfants":"nan","Origine":"Angleterre","Vocation":"Rentiere"},{"Adresse":"Rue Saint-Pierre 19","Latitude":46.5201808,"Longitude":6.6349012722,"Proprietaire":"Rouge","Statut":"Veuve","Prenom":"nan","Nom":"Fornerod","Date de naissance":"1761","Age":"71.0","Age_group":"71 \u00e0 80 ans","Nom de jeune fille":"nan","Enfants":"nan","Date de naissance des enfants":"nan","Origine":"Avanches","Vocation":"Rentiere"},{"Adresse":"Rue Saint-Pierre 14","Latitude":46.5200124,"Longitude":6.6350521,"Proprietaire":"Spach","Statut":"Veuve","Prenom":"nan","Nom":"Herter","Date de naissance":"1750","Age":"82.0","Age_group":"81 \u00e0 90 ans","Nom de jeune fille":"nan","Enfants":"nan","Date de naissance des enfants":"nan","Origine":"Belmont","Vocation":"Marchande"},{"Adresse":"Rue Saint-Pierre 23","Latitude":46.5201983,"Longitude":6.635031182,"Proprietaire":"Lacombe","Statut":"nan","Prenom":"Fauchette","Nom":"Blanc","Date de naissance":"1800","Age":"32.0","Age_group":"31 \u00e0 40 ans","Nom de jeune fille":"nan","Enfants":"nan","Date de naissance des enfants":"nan","Origine":"Belmont","Vocation":"Tailleuse"},{"Adresse":"Rue Saint-Pierre 20","Latitude":46.5199691,"Longitude":6.6354729,"Proprietaire":"Milliquet","Statut":"nan","Prenom":"Annette","Nom":"Schontall","Date de naissance":"1786","Age":"46.0","Age_group":"41 \u00e0 50 ans","Nom de jeune fille":"nan","Enfants":"nan","Date de naissance des enfants":"nan","Origine":"Berne","Vocation":"Marchande"},{"Adresse":"Rue Saint-Pierre 25","Latitude":46.5201796,"Longitude":6.6351039342,"Proprietaire":"Milliguet","Statut":"nan","Prenom":"Madame","Nom":"De Bettens","Date de naissance":"nan","Age":"nan","Age_group":"nan","Nom de jeune fille":"nan","Enfants":"Augusta","Date de naissance des enfants":"1804","Origine":"Bettens","Vocation":"nan"},{"Adresse":"Rue Saint-Pierre 16","Latitude":46.5199939,"Longitude":6.6351596,"Proprietaire":"Defsel","Statut":"nan","Prenom":"Jeannette","Nom":"veibel","Date de naissance":"nan","Age":"nan","Age_group":"nan","Nom de jeune fille":"nan","Enfants":"nan","Date de naissance des enfants":"nan","Origine":"Canton de Berne","Vocation":"nan"},{"Adresse":"Rue Saint-Pierre 14","Latitude":46.5200124,"Longitude":6.6350521,"Proprietaire":"Spach","Statut":"nan","Prenom":"Jeanne Fran\u00e7oise","Nom":"Maron","Date de naissance":"1775","Age":"57.0","Age_group":"51 \u00e0 60 ans","Nom de jeune fille":"nan","Enfants":"nan","Date de naissance des enfants":"nan","Origine":"Canton de Thurgovie","Vocation":"Journaliere"},{"Adresse":"Rue Saint-Pierre 23","Latitude":46.5201983,"Longitude":6.635031182,"Proprietaire":"Lacombe","Statut":"nan","Prenom":"Jeannette","Nom":"Cartier","Date de naissance":"1808","Age":"24.0","Age_group":"21 \u00e0 30 ans","Nom de jeune fille":"nan","Enfants":"nan","Date de naissance des enfants":"nan","Origine":"Corbeil","Vocation":"Tailleuse"},{"Adresse":"Rue Saint-Pierre 19","Latitude":46.5201808,"Longitude":6.6349012722,"Proprietaire":"Rouge","Statut":"Veuve","Prenom":"nan","Nom":"Heffen","Date de naissance":"1789","Age":"43.0","Age_group":"41 \u00e0 50 ans","Nom de jeune fille":"nan","Enfants":"Marie","Date de naissance des enfants":"1820","Origine":"Cossonay","Vocation":"Tailleuse"},{"Adresse":"Rue Saint-Pierre 21","Latitude":46.52021135,"Longitude":6.6349670549,"Proprietaire":"Meyer","Statut":"Veuve","Prenom":"nan","Nom":"Hauder","Date de naissance":"1780","Age":"52.0","Age_group":"51 \u00e0 60 ans","Nom de jeune fille":"nan","Enfants":"Lucie, Marie, Daniel, Francois","Date de naissance des enfants":"1804,1811,1813,1817","Origine":"Cully","Vocation":"Tailleuse"},{"Adresse":"Rue Saint-Pierre 15","Latitude":46.520191,"Longitude":6.6346831471,"Proprietaire":"Lugimbuhl","Statut":"Marie ou Veuve","Prenom":"Femme de Goerges Louis","Nom":"Champrenaud","Date de naissance":"1797","Age":"35.0","Age_group":"31 \u00e0 40 ans","Nom de jeune fille":"Lugimbuhl","Enfants":"Caroline","Date de naissance des enfants":"1823","Origine":"Cully","Vocation":"nan"},{"Adresse":"Rue Saint-Pierre 19","Latitude":46.5201808,"Longitude":6.6349012722,"Proprietaire":"Rouge","Statut":"Marie ou Veuve","Prenom":"Femme de Jean","Nom":"Linzermann","Date de naissance":"1802","Age":"30.0","Age_group":"21 \u00e0 30 ans","Nom de jeune fille":"nan","Enfants":"Charlotte, David","Date de naissance des enfants":"1821,1825","Origine":"Danemarie","Vocation":"Tailleuse"},{"Adresse":"Rue Saint-Pierre 23","Latitude":46.5201983,"Longitude":6.635031182,"Proprietaire":"Lacombe","Statut":"nan","Prenom":"Marianne","Nom":"Trabaud","Date de naissance":"1806","Age":"26.0","Age_group":"21 \u00e0 30 ans","Nom de jeune fille":"nan","Enfants":"nan","Date de naissance des enfants":"nan","Origine":"Duillier","Vocation":"nan"},{"Adresse":"Rue Saint-Pierre 20","Latitude":46.5199691,"Longitude":6.6354729,"Proprietaire":"Milliquet","Statut":"nan","Prenom":"Susette","Nom":"D'Oviedo","Date de naissance":"1793","Age":"39.0","Age_group":"31 \u00e0 40 ans","Nom de jeune fille":"nan","Enfants":"Victorine","Date de naissance des enfants":"1822","Origine":"Espagne","Vocation":"Rentiere"},{"Adresse":"Rue Saint-Pierre 16","Latitude":46.5199939,"Longitude":6.6351596,"Proprietaire":"Defsel","Statut":"nan","Prenom":"Anne Pauline","Nom":"Poluneth","Date de naissance":"1778","Age":"54.0","Age_group":"51 \u00e0 60 ans","Nom de jeune fille":"nan","Enfants":"nan","Date de naissance des enfants":"nan","Origine":"France","Vocation":"Rentiere"},{"Adresse":"Rue Saint-Pierre 10","Latitude":46.519927,"Longitude":6.6346873245,"Proprietaire":"Bessiere","Statut":"Veuve","Prenom":"nan","Nom":"Bessiere","Date de naissance":"1778","Age":"54.0","Age_group":"51 \u00e0 60 ans","Nom de jeune fille":"nan","Enfants":"Marie","Date de naissance des enfants":"1814","Origine":"France","Vocation":"Rentiere"},{"Adresse":"Rue Saint-Pierre 26","Latitude":46.5197187,"Longitude":6.6360471928,"Proprietaire":"Polier","Statut":"nan","Prenom":"Madame la comtesse","Nom":"De Lepine","Date de naissance":"nan","Age":"nan","Age_group":"nan","Nom de jeune fille":"nan","Enfants":"nan","Date de naissance des enfants":"nan","Origine":"France","Vocation":"nan"},{"Adresse":"Rue Saint-Pierre 14","Latitude":46.5200124,"Longitude":6.6350521,"Proprietaire":"Spach","Statut":"nan","Prenom":"Suzanne","Nom":"Schrantz","Date de naissance":"1776","Age":"56.0","Age_group":"51 \u00e0 60 ans","Nom de jeune fille":"nan","Enfants":"nan","Date de naissance des enfants":"nan","Origine":"Frutiguen","Vocation":"Journaliere"},{"Adresse":"Rue Saint-Pierre 14","Latitude":46.5200124,"Longitude":6.6350521,"Proprietaire":"Spach","Statut":"Veuve","Prenom":"nan","Nom":"Blum","Date de naissance":"1794","Age":"38.0","Age_group":"31 \u00e0 40 ans","Nom de jeune fille":"nan","Enfants":"Julie, Marie, Samuel","Date de naissance des enfants":"1827, 1828, 1829","Origine":"Gessenay","Vocation":"Marchande"},{"Adresse":"Rue Saint-Pierre 18","Latitude":46.5199763,"Longitude":6.6353039,"Proprietaire":"Marguet","Statut":"Veuve","Prenom":"nan","Nom":"Blanchot","Date de naissance":"1765","Age":"67.0","Age_group":"61 \u00e0 70 ans","Nom de jeune fille":"nan","Enfants":"Louise","Date de naissance des enfants":"1790","Origine":"Lonay","Vocation":"Rentiere"},{"Adresse":"Rue Saint-Pierre 13","Latitude":46.5202026,"Longitude":6.6345547395,"Proprietaire":"Pachoud","Statut":"Veuve","Prenom":"nan","Nom":"Pachoud","Date de naissance":"1778","Age":"54.0","Age_group":"51 \u00e0 60 ans","Nom de jeune fille":"nan","Enfants":" ","Date de naissance des enfants":" ","Origine":"Lausanne","Vocation":"Aubergiste"},{"Adresse":"Rue Saint-Pierre 16","Latitude":46.5199939,"Longitude":6.6351596,"Proprietaire":"Defsel","Statut":"Veuve","Prenom":"nan","Nom":"Defsel","Date de naissance":"1775","Age":"57.0","Age_group":"51 \u00e0 60 ans","Nom de jeune fille":"Blane","Enfants":"nan","Date de naissance des enfants":"nan","Origine":"Lausanne","Vocation":"Rentiere"},{"Adresse":"Rue Saint-Pierre 26","Latitude":46.5197187,"Longitude":6.6360471928,"Proprietaire":"Mayor","Statut":"Veuve","Prenom":"nan","Nom":"Regamey","Date de naissance":"1787","Age":"45.0","Age_group":"41 \u00e0 50 ans","Nom de jeune fille":"Girard","Enfants":"Georges, Louis","Date de naissance des enfants":"1806, 1809","Origine":"Lausanne","Vocation":"Rentiere"},{"Adresse":"Rue Saint-Pierre 16","Latitude":46.5199939,"Longitude":6.6351596,"Proprietaire":"Defsel","Statut":"Veuve","Prenom":"nan","Nom":"Defsel","Date de naissance":"1800","Age":"32.0","Age_group":"31 \u00e0 40 ans","Nom de jeune fille":"Gauthier","Enfants":"nan","Date de naissance des enfants":"nan","Origine":"Lausanne","Vocation":"Rentiere"},{"Adresse":"Rue Saint-Pierre 14","Latitude":46.5200124,"Longitude":6.6350521,"Proprietaire":"Spach","Statut":"nan","Prenom":"Henriette","Nom":"Chapuis","Date de naissance":"1804","Age":"28.0","Age_group":"21 \u00e0 30 ans","Nom de jeune fille":"nan","Enfants":"Lucie","Date de naissance des enfants":"1830","Origine":"Lausanne","Vocation":"Repasseuse"},{"Adresse":"Rue Saint-Pierre 22","Latitude":46.5199749,"Longitude":6.6356141,"Proprietaire":"Hennein","Statut":"Veuve","Prenom":"nan","Nom":"Rouge","Date de naissance":"1774","Age":"58.0","Age_group":"51 \u00e0 60 ans","Nom de jeune fille":"nan","Enfants":"nan","Date de naissance des enfants":"nan","Origine":"Lausanne","Vocation":"nan"},{"Adresse":"Rue Saint-Pierre 26","Latitude":46.5197187,"Longitude":6.6360471928,"Proprietaire":"Mayor","Statut":"nan","Prenom":"Fran\u00e7oise","Nom":"Dantan","Date de naissance":"1798","Age":"34.0","Age_group":"31 \u00e0 40 ans","Nom de jeune fille":"nan","Enfants":"Louis, Jenny, Frederic","Date de naissance des enfants":"1818, 1823, 1825","Origine":"Lutry","Vocation":"Marchande"},{"Adresse":"Rue Saint-Pierre 22","Latitude":46.5199749,"Longitude":6.6356141,"Proprietaire":"Hennein","Statut":"nan","Prenom":"Sophie","Nom":"Veyrassat","Date de naissance":"1800","Age":"32.0","Age_group":"31 \u00e0 40 ans","Nom de jeune fille":"nan","Enfants":"nan","Date de naissance des enfants":"nan","Origine":"Vevey","Vocation":"Tailleuse"},{"Adresse":"Rue Saint-Pierre 22","Latitude":46.5199749,"Longitude":6.6356141,"Proprietaire":"Hennein","Statut":"nan","Prenom":"Pauline","Nom":"Veyrassat","Date de naissance":"1801","Age":"31.0","Age_group":"31 \u00e0 40 ans","Nom de jeune fille":"nan","Enfants":"nan","Date de naissance des enfants":"nan","Origine":"Vevey","Vocation":"nan"},{"Adresse":"Rue Saint-Pierre 22","Latitude":46.5199749,"Longitude":6.6356141,"Proprietaire":"Hennein","Statut":"nan","Prenom":"Marie","Nom":"Veyrassat","Date de naissance":"1803","Age":"29.0","Age_group":"21 \u00e0 30 ans","Nom de jeune fille":"nan","Enfants":"nan","Date de naissance des enfants":"nan","Origine":"Vevey","Vocation":"nan"},{"Adresse":"Rue Saint-Pierre 15","Latitude":46.520191,"Longitude":6.6346831471,"Proprietaire":"Lugimbuhl","Statut":"nan","Prenom":"Jeannette","Nom":"Parisod","Date de naissance":"1772","Age":"60.0","Age_group":"51 \u00e0 60 ans","Nom de jeune fille":"nan","Enfants":"nan","Date de naissance des enfants":"nan","Origine":"Villette","Vocation":"Lingere"},{"Adresse":"Rue Saint-Pierre 15","Latitude":46.520191,"Longitude":6.6346831471,"Proprietaire":"Lugimbuhl","Statut":"nan","Prenom":"Nanette","Nom":"Parisod","Date de naissance":"1775","Age":"57.0","Age_group":"51 \u00e0 60 ans","Nom de jeune fille":"nan","Enfants":"nan","Date de naissance des enfants":"nan","Origine":"Villette","Vocation":"Lingere"},{"Adresse":"Rue Saint-Pierre 21","Latitude":46.52021135,"Longitude":6.6349670549,"Proprietaire":"Meyer","Statut":"Veuve","Prenom":"nan","Nom":"Crot","Date de naissance":"1799","Age":"33.0","Age_group":"31 \u00e0 40 ans","Nom de jeune fille":"nan","Enfants":"nan","Date de naissance des enfants":"nan","Origine":"Villette","Vocation":"Marchande"},{"Adresse":"Rue Saint-Pierre 16","Latitude":46.5199939,"Longitude":6.6351596,"Proprietaire":"Defsel","Statut":"Veuve","Prenom":"nan","Nom":"Ducros","Date de naissance":"1780","Age":"52.0","Age_group":"51 \u00e0 60 ans","Nom de jeune fille":"nan","Enfants":"nan","Date de naissance des enfants":"nan","Origine":"Yverdon","Vocation":"Marchande"},{"Adresse":"Rue de la Barre 44","Latitude":46.5260367,"Longitude":6.635923,"Proprietaire":"Grillet","Statut":"Veuve","Prenom":"nan","Nom":"Dubois","Date de naissance":"1786","Age":"46.0","Age_group":"41 \u00e0 50 ans","Nom de jeune fille":"Baud","Enfants":"nan","Date de naissance des enfants":"nan","Origine":"Aubonne","Vocation":"Rentiere"},{"Adresse":"Rue de la Barre 53","Latitude":46.5260367,"Longitude":6.635923,"Proprietaire":"Ebeslet","Statut":"nan","Prenom":"Elise","Nom":"Frederic","Date de naissance":"1797","Age":"35.0","Age_group":"31 \u00e0 40 ans","Nom de jeune fille":"nan","Enfants":"nan","Date de naissance des enfants":"nan","Origine":"Canton de Zurick","Vocation":"Couturiere"},{"Adresse":"Rue de la Barre 4","Latitude":46.52500535,"Longitude":6.6361051272,"Proprietaire":"Corbaz","Statut":"nan","Prenom":"Marie","Nom":"Richard","Date de naissance":"1793","Age":"39.0","Age_group":"31 \u00e0 40 ans","Nom de jeune fille":"nan","Enfants":"nan","Date de naissance des enfants":"nan","Origine":"France","Vocation":"nan"},{"Adresse":"Rue de la Barre 44","Latitude":46.5260367,"Longitude":6.635923,"Proprietaire":"Grillet","Statut":"nan","Prenom":"Marie","Nom":"Meyer","Date de naissance":"1787","Age":"45.0","Age_group":"41 \u00e0 50 ans","Nom de jeune fille":"nan","Enfants":"nan","Date de naissance des enfants":"nan","Origine":"Fribourg","Vocation":"Lingere"},{"Adresse":"Rue de la Barre 8","Latitude":46.5254426,"Longitude":6.6360738,"Proprietaire":"Goldenschmid","Statut":"Veuve","Prenom":"nan","Nom":"Goldenschmid","Date de naissance":"1787","Age":"45.0","Age_group":"41 \u00e0 50 ans","Nom de jeune fille":"Henny","Enfants":"Marc, Jean Louis","Date de naissance des enfants":"1812, 1808","Origine":"Goumoens","Vocation":"nan"},{"Adresse":"Rue de la Barre 2","Latitude":46.5248213,"Longitude":6.6361125646,"Proprietaire":"Chapallaz","Statut":"Veuve","Prenom":"nan","Nom":"Chapalaz","Date de naissance":"1754","Age":"78.0","Age_group":"71 \u00e0 80 ans","Nom de jeune fille":"Chanay","Enfants":"Fran\u00e7oise","Date de naissance des enfants":"1795","Origine":"Lussy","Vocation":"Couturiere"},{"Adresse":"Rue de la Barre 45","Latitude":46.5260367,"Longitude":6.635923,"Proprietaire":"Panchaud","Statut":"nan","Prenom":"Marguerite","Nom":"Faucherre","Date de naissance":"1792","Age":"40.0","Age_group":"31 \u00e0 40 ans","Nom de jeune fille":"nan","Enfants":"nan","Date de naissance des enfants":"nan","Origine":"Moudon","Vocation":"Lingere"},{"Adresse":"Rue de la Barre 15","Latitude":46.5262149,"Longitude":6.6352998391,"Proprietaire":"Curchod","Statut":"Marie ou Veuve","Prenom":"Jeanne","Nom":"Demauron","Date de naissance":"1790","Age":"42.0","Age_group":"41 \u00e0 50 ans","Nom de jeune fille":"Crousaz","Enfants":"Henriette, Georges, Charles","Date de naissance des enfants":"1814, 1815, 1809","Origine":"Orbe","Vocation":"Rentiere"},{"Adresse":"Rue de la Barre 14","Latitude":46.5261049,"Longitude":6.6363035718,"Proprietaire":"Pittet","Statut":"Marie ou Veuve","Prenom":"Charlotte","Nom":"Vallotton","Date de naissance":"1771","Age":"61.0","Age_group":"61 \u00e0 70 ans","Nom de jeune fille":"Magnenat","Enfants":"Charles","Date de naissance des enfants":"1804","Origine":"Vallorbe","Vocation":"Rentiere"},{"Adresse":"Rue de la Barre 12","Latitude":46.5260367,"Longitude":6.635923,"Proprietaire":"Corsat-Nicolas","Statut":"nan","Prenom":"Nanette","Nom":"Dabas","Date de naissance":"1780","Age":"52.0","Age_group":"51 \u00e0 60 ans","Nom de jeune fille":"nan","Enfants":"Jeanne Francoise","Date de naissance des enfants":"1811","Origine":"Vuadens","Vocation":"Rentiere"},{"Adresse":"Rue de la Barre 53","Latitude":46.5260367,"Longitude":6.635923,"Proprietaire":"Ebeslet","Statut":"Veuve","Prenom":"nan","Nom":"Pirche","Date de naissance":"nan","Age":"nan","Age_group":"nan","Nom de jeune fille":"nan","Enfants":"nan","Date de naissance des enfants":"nan","Origine":"nan","Vocation":"nan"},{"Adresse":"Rue de la Grotte 8","Latitude":46.517761,"Longitude":6.6338801,"Proprietaire":"Gay","Statut":"Veuve","Prenom":"Lily","Nom":"nan","Date de naissance":"1770","Age":"62.0","Age_group":"61 \u00e0 70 ans","Nom de jeune fille":"Vaulvavert","Enfants":"Sabine","Date de naissance des enfants":"1804","Origine":"Canton de Saint Gall","Vocation":"Rentiere"},{"Adresse":"Rue de la Grotte 7","Latitude":46.51760375,"Longitude":6.6345915165,"Proprietaire":"Madame Gay","Statut":"nan","Prenom":"Rose Susette","Nom":"Gay","Date de naissance":"1769","Age":"63.0","Age_group":"61 \u00e0 70 ans","Nom de jeune fille":"nan","Enfants":"nan","Date de naissance des enfants":"nan","Origine":"Lutry","Vocation":"Locataire"},{"Adresse":"Rue de la Grotte 7","Latitude":46.51760375,"Longitude":6.6345915165,"Proprietaire":"Madame Gay","Statut":"nan","Prenom":"Louise","Nom":"Gay","Date de naissance":"1771","Age":"61.0","Age_group":"61 \u00e0 70 ans","Nom de jeune fille":"nan","Enfants":"nan","Date de naissance des enfants":"nan","Origine":"Lutry","Vocation":"Locataire"},{"Adresse":"Rue de la Grotte 4","Latitude":46.5183291,"Longitude":6.6338087,"Proprietaire":"David","Statut":"nan","Prenom":"Fanny","Nom":"David","Date de naissance":"1784","Age":"48.0","Age_group":"41 \u00e0 50 ans","Nom de jeune fille":"nan","Enfants":"nan","Date de naissance des enfants":"nan","Origine":"nan","Vocation":"nan"},{"Adresse":"Derri\u00e8re les Terreaux 1","Latitude":46.5227356,"Longitude":6.6277182,"Proprietaire":"Hugonet","Statut":"nan","Prenom":"Caroline","Nom":"Begoz","Date de naissance":"1774","Age":"58.0","Age_group":"51 \u00e0 60 ans","Nom de jeune fille":" ","Enfants":" ","Date de naissance des enfants":" ","Origine":"Aubonne","Vocation":" "},{"Adresse":"Derri\u00e8re les Terreaux 1","Latitude":46.5227356,"Longitude":6.6277182,"Proprietaire":"Hugonet","Statut":"Celibataire","Prenom":"Susanne","Nom":"Delisle","Date de naissance":"1800","Age":"32.0","Age_group":"31 \u00e0 40 ans","Nom de jeune fille":"nan","Enfants":"nan","Date de naissance des enfants":"nan","Origine":"Lausanne","Vocation":"Secretaire"},{"Adresse":"Rue du Grand ch\u00eane 1","Latitude":46.5195823,"Longitude":6.6319104,"Proprietaire":"Perbez","Statut":"Marie ou Veuve","Prenom":"Madame","Nom":"Delerbez","Date de naissance":"nan","Age":"nan","Age_group":"nan","Nom de jeune fille":"Gleyre","Enfants":"nan","Date de naissance des enfants":"nan","Origine":"Berne","Vocation":"nan"},{"Adresse":"Rue du Grand ch\u00eane 1","Latitude":46.5195823,"Longitude":6.6319104,"Proprietaire":"Perbez","Statut":"Marie ou Veuve","Prenom":"Augustine","Nom":"Oymard","Date de naissance":"1802","Age":"30.0","Age_group":"21 \u00e0 30 ans","Nom de jeune fille":"De Beaulieu","Enfants":"nan","Date de naissance des enfants":"nan","Origine":"France","Vocation":"Marchande"},{"Adresse":"Rue du Grand ch\u00eane 8","Latitude":46.5197763,"Longitude":6.6309727,"Proprietaire":"Wullyamoz","Statut":"nan","Prenom":"Henriette","Nom":"Wullyamoz","Date de naissance":"1752","Age":"80.0","Age_group":"71 \u00e0 80 ans","Nom de jeune fille":"nan","Enfants":"nan","Date de naissance des enfants":"nan","Origine":"Lausanne","Vocation":"Rentiere"},{"Adresse":"Rue du Grand ch\u00eane 27","Latitude":46.5198836,"Longitude":6.6298297,"Proprietaire":"Noir","Statut":"nan","Prenom":"Jeanne","Nom":"Cuenoud","Date de naissance":"1767","Age":"65.0","Age_group":"61 \u00e0 70 ans","Nom de jeune fille":"nan","Enfants":"nan","Date de naissance des enfants":"nan","Origine":"Lausanne","Vocation":"Tailleuse"},{"Adresse":"Rue du Grand ch\u00eane 20","Latitude":46.5198836,"Longitude":6.6298297,"Proprietaire":"Braun","Statut":"nan","Prenom":"Salome Louise","Nom":"Braun","Date de naissance":"nan","Age":"nan","Age_group":"nan","Nom de jeune fille":"nan","Enfants":"nan","Date de naissance des enfants":"nan","Origine":"France","Vocation":"Rentiere"},{"Adresse":"Rue du Grand ch\u00eane 1","Latitude":46.5195823,"Longitude":6.6319104,"Proprietaire":"Perbez","Statut":"Marie ou Veuve","Prenom":"Marie","Nom":"De Beaulieu","Date de naissance":"nan","Age":"nan","Age_group":"nan","Nom de jeune fille":"Soulliard","Enfants":"Caroline","Date de naissance des enfants":"1819","Origine":"France","Vocation":"nan"},{"Adresse":"Rue du Grand ch\u00eane 2","Latitude":46.5197319,"Longitude":6.6316322,"Proprietaire":"Noir","Statut":"Marie ou Veuve","Prenom":"Marie","Nom":"Amud","Date de naissance":"1779","Age":"53.0","Age_group":"51 \u00e0 60 ans","Nom de jeune fille":"Covin","Enfants":"Louise","Date de naissance des enfants":"1800","Origine":"Prilly","Vocation":"nan"},{"Adresse":"Rue du Grand ch\u00eane 3","Latitude":46.5198836,"Longitude":6.6298297,"Proprietaire":"Dapples","Statut":"Veuve","Prenom":"nan","Nom":"Dapples","Date de naissance":"nan","Age":"nan","Age_group":"nan","Nom de jeune fille":"nan","Enfants":"nan","Date de naissance des enfants":"nan","Origine":"nan","Vocation":"Sage femme"},{"Adresse":"Rue du Grand ch\u00eane 4","Latitude":46.519726,"Longitude":6.631474,"Proprietaire":"Dapples","Statut":"Veuve","Prenom":"Suzette","Nom":"Dapples","Date de naissance":"nan","Age":"nan","Age_group":"nan","Nom de jeune fille":"nan","Enfants":"nan","Date de naissance des enfants":"nan","Origine":"nan","Vocation":"nan"},{"Adresse":"Rue du Grand ch\u00eane 6","Latitude":46.5197445,"Longitude":6.6312898,"Proprietaire":"De Loys","Statut":"nan","Prenom":"Comtesse","Nom":"De Diehiechstein","Date de naissance":"nan","Age":"nan","Age_group":"nan","Nom de jeune fille":"nan","Enfants":"nan","Date de naissance des enfants":"nan","Origine":"nan","Vocation":"nan"},{"Adresse":"Rue du Grand ch\u00eane 6","Latitude":46.5197445,"Longitude":6.6312898,"Proprietaire":"De Loys","Statut":"nan","Prenom":"Princesse","Nom":"De Diehiechstein","Date de naissance":"nan","Age":"nan","Age_group":"nan","Nom de jeune fille":"nan","Enfants":"nan","Date de naissance des enfants":"nan","Origine":"nan","Vocation":"nan"},{"Adresse":"Rue du Maupas 33","Latitude":46.52516055,"Longitude":6.6250910242,"Proprietaire":"Descombes","Statut":"Veuve","Prenom":"nan","Nom":"Ribi","Date de naissance":"nan","Age":"nan","Age_group":"nan","Nom de jeune fille":"Henpans","Enfants":"nan","Date de naissance des enfants":"nan","Origine":"Angleterre","Vocation":"Rentiere"},{"Adresse":"Rue du Maupas 33","Latitude":46.52516055,"Longitude":6.6250910242,"Proprietaire":"Descombes","Statut":"Veuve","Prenom":"nan","Nom":"Descombes","Date de naissance":"1780","Age":"52.0","Age_group":"51 \u00e0 60 ans","Nom de jeune fille":"nan","Enfants":"Jenny","Date de naissance des enfants":"1806","Origine":"Lausanne","Vocation":"Rentiere"},{"Adresse":"Rue du Maupas 39","Latitude":46.5259468,"Longitude":6.6237969,"Proprietaire":"Bocion","Statut":"Celibataire","Prenom":"nan","Nom":"Aubert","Date de naissance":"nan","Age":"nan","Age_group":"nan","Nom de jeune fille":"nan","Enfants":"nan","Date de naissance des enfants":"nan","Origine":"nan","Vocation":"nan"},{"Adresse":"Rue du Maupas 35","Latitude":46.5259468,"Longitude":6.6237969,"Proprietaire":"Fivaz","Statut":"Marie ou Veuve","Prenom":"Marianne","Nom":"Fivaz","Date de naissance":"nan","Age":"nan","Age_group":"nan","Nom de jeune fille":"nan","Enfants":"Marie, Anne, Hellgin, Jules","Date de naissance des enfants":"1822,1824,1825,1829","Origine":"Vevey","Vocation":"nan"},{"Adresse":"Rue du Petit Ch\u00eane 3","Latitude":46.5191403,"Longitude":6.6319472,"Proprietaire":"Samuel","Statut":"nan","Prenom":"Madame","Nom":"Signoud","Date de naissance":"1800","Age":"32.0","Age_group":"31 \u00e0 40 ans","Nom de jeune fille":"nan","Enfants":"Cesar","Date de naissance des enfants":"1824","Origine":"Berne","Vocation":"En pension"},{"Adresse":"Rue du Petit Ch\u00eane 4","Latitude":46.5190978,"Longitude":6.6296175,"Proprietaire":"Bergier","Statut":"nan","Prenom":"Julie","Nom":"Roch","Date de naissance":"1782","Age":"50.0","Age_group":"41 \u00e0 50 ans","Nom de jeune fille":"nan","Enfants":"nan","Date de naissance des enfants":"nan","Origine":"Chateau d'Oex","Vocation":"Infirme"},{"Adresse":"Rue du Petit Ch\u00eane 4","Latitude":46.5190978,"Longitude":6.6296175,"Proprietaire":"Bergier","Statut":"nan","Prenom":"Nanette","Nom":"Roch","Date de naissance":"1785","Age":"47.0","Age_group":"41 \u00e0 50 ans","Nom de jeune fille":"nan","Enfants":"nan","Date de naissance des enfants":"nan","Origine":"Chateau d'Oex","Vocation":"Repasseuse"},{"Adresse":"Rue du Petit Ch\u00eane 2","Latitude":46.5190978,"Longitude":6.6296175,"Proprietaire":"Moulin","Statut":"Veuve","Prenom":"nan","Nom":"Pache","Date de naissance":"1758","Age":"74.0","Age_group":"71 \u00e0 80 ans","Nom de jeune fille":"nan","Enfants":"Charlotte, Fanny ","Date de naissance des enfants":"1793,1823","Origine":"Epalinges","Vocation":"Lingere"},{"Adresse":"Rue du Petit Ch\u00eane 4","Latitude":46.5190978,"Longitude":6.6296175,"Proprietaire":"Bergier","Statut":"nan","Prenom":"Marie","Nom":"Jaquery","Date de naissance":"nan","Age":"nan","Age_group":"nan","Nom de jeune fille":"nan","Enfants":"nan","Date de naissance des enfants":"nan","Origine":"Moudon","Vocation":"Repasseuse"},{"Adresse":"Rue du Petit Ch\u00eane 5","Latitude":46.5190978,"Longitude":6.6296175,"Proprietaire":"Bouet","Statut":"nan","Prenom":"Georgette","Nom":"Jaquenoud","Date de naissance":"1804","Age":"28.0","Age_group":"21 \u00e0 30 ans","Nom de jeune fille":"nan","Enfants":"nan","Date de naissance des enfants":"nan","Origine":"nan","Vocation":"nan"},{"Adresse":"Rue du Petit Saint-Jean 4","Latitude":46.521137,"Longitude":6.6327988,"Proprietaire":"Bippert","Statut":"Marie ou Veuve","Prenom":"Femme de Gabriel","Nom":"Beboux","Date de naissance":"1780","Age":"52.0","Age_group":"51 \u00e0 60 ans","Nom de jeune fille":"nan","Enfants":"nan","Date de naissance des enfants":"nan","Origine":"Belmont","Vocation":"Fabricante"},{"Adresse":"Rue du Petit Saint-Jean 10","Latitude":46.5209144,"Longitude":6.6331277,"Proprietaire":"Muller","Statut":"nan","Prenom":"Marguerite","Nom":"Brugger","Date de naissance":"1801","Age":"31.0","Age_group":"31 \u00e0 40 ans","Nom de jeune fille":"nan","Enfants":"nan","Date de naissance des enfants":"nan","Origine":"Berne","Vocation":"Tailleuse"},